ID,Severity,Start_Time,End_Time,Start_Lat,Start_Lng,End_Lat,End_Lng,Distance(mi),Description,Number,Street,Side,City,County,State,Zipcode,Country,Timezone,Airport_Code,Weather_Timestamp,Temperature(F),Wind_Chill(F),Humidity(%),Pressure(in),Visibility(mi),Wind_Direction,Wind_Speed(mph),Precipitation(in),Weather_Condition,Amenity,Bump,Crossing,Give_Way,Junction,No_Exit,Railway,Roundabout,Station,Stop,Traffic_Calming,Traffic_Signal,Turning_Loop,Sunrise_Sunset,Civil_Twilight,Nautical_Twilight,Astronomical_Twilight
A-2716600,3,08/02/16 0:37,08/02/16 6:37,40.10891,-83.09286,40.11206,-83.03187,3.23,Between Sawmill Rd/Exit 20 and OH-315/Olentangy Riv Rd/Exit 22 - Accident.,,Outerbelt E,R,Dublin,Franklin,OH,43017,US,US/Eastern,KOSU,08/02/16 0:53,42.1,36.1,58,29.76,10,SW,10.4,0,Light Rain,FALSE,FALSE,FALSE,FALSE,FALSE,FALSE,FALSE,FALSE,FALSE,FALSE,FALSE,FALSE,FALSE,Night,Night,Night,Night
A-2716601,2,08/02/16 5:56,08/02/16 11:56,39.86542,-84.0628,39.86501,-84.04873,0.747,At OH-4/OH-235/Exit 41 - Accident.,,I-70 E,R,Dayton,Montgomery,OH,45424,US,US/Eastern,KFFO,08/02/16 5:58,36.9,,91,29.68,10,Calm,,0.02,Light Rain,FALSE,FALSE,FALSE,FALSE,FALSE,FALSE,FALSE,FALSE,FALSE,FALSE,FALSE,FALSE,FALSE,Night,Night,Night,Night
A-2716602,2,08/02/16 6:15,08/02/16 12:15,39.10266,-84.52468,39.10209,-84.52396,0.055,At I-71/US-50/Exit 1 - Accident.,,I-75 S,R,Cincinnati,Hamilton,OH,45203,US,US/Eastern,KLUK,08/02/16 5:53,36,,97,29.7,10,Calm,,0.02,Overcast,FALSE,FALSE,FALSE,FALSE,TRUE,FALSE,FALSE,FALSE,FALSE,FALSE,FALSE,FALSE,FALSE,Night,Night,Night,Day
A-2716603,2,08/02/16 6:15,08/02/16 12:15,39.10148,-84.52341,39.09841,-84.52241,0.219,At I-71/US-50/Exit 1 - Accident.,,US-50 E,R,Cincinnati,Hamilton,OH,45202,US,US/Eastern,KLUK,08/02/16 5:53,36,,97,29.7,10,Calm,,0.02,Overcast,FALSE,FALSE,FALSE,FALSE,TRUE,FALSE,FALSE,FALSE,FALSE,FALSE,FALSE,FALSE,FALSE,Night,Night,Night,Day
A-2716604,2,08/02/16 6:51,08/02/16 12:51,41.06213,-81.53784,41.06217,-81.53547,0.123,At Dart Ave/Exit 21 - Accident.,,I-77 N,R,Akron,Summit,OH,44311,US,US/Eastern,KAKR,08/02/16 6:54,39,,55,29.65,10,Calm,,,Overcast,FALSE,FALSE,FALSE,FALSE,FALSE,FALSE,FALSE,FALSE,FALSE,FALSE,FALSE,FALSE,FALSE,Night,Night,Day,Day
A-2716605,3,08/02/16 7:53,08/02/16 13:53,39.172393,-84.492792,39.170476,-84.501798,0.5,At Mitchell Ave/Exit 6 - Accident.,,I-75 S,R,Cincinnati,Hamilton,OH,45217,US,US/Eastern,KLUK,08/02/16 7:53,37,29.8,93,29.69,10,WSW,10.4,0.01,Light Rain,FALSE,FALSE,FALSE,FALSE,FALSE,FALSE,FALSE,FALSE,FALSE,FALSE,FALSE,FALSE,FALSE,Day,Day,Day,Day
A-2716606,2,08/02/16 8:16,08/02/16 14:16,39.06324,-84.03243,39.06731,-84.05851,1.427,At Dela Palma Rd - Accident.,,State Route 32,R,Williamsburg,Clermont,OH,45176,US,US/Eastern,KI69,08/02/16 8:16,35.6,29.2,100,29.66,10,WSW,8.1,,Overcast,FALSE,FALSE,FALSE,FALSE,FALSE,FALSE,FALSE,FALSE,FALSE,FALSE,FALSE,TRUE,FALSE,Day,Day,Day,Day
A-2716607,2,08/02/16 8:16,08/02/16 14:16,39.06708,-84.05855,39.06302,-84.03254,1.423,At Dela Palma Rd - Accident.,1887, State Route 32,R,Batavia,Clermont,OH,45103,US,US/Eastern,KI69,08/02/16 8:16,35.6,29.2,100,29.66,10,WSW,8.1,,Overcast,FALSE,FALSE,FALSE,FALSE,FALSE,FALSE,FALSE,FALSE,FALSE,FALSE,FALSE,FALSE,FALSE,Day,Day,Day,Day
A-2716608,2,08/02/16 8:15,08/02/16 14:15,39.77565,-84.18603,39.77275,-84.18805,0.227,At OH-4/Exit 54 - Accident.,,I-75 S,R,Dayton,Montgomery,OH,45404,US,US/Eastern,KFFO,08/02/16 8:18,33.8,,100,29.63,3,SW,2.3,,Mostly Cloudy,FALSE,FALSE,FALSE,FALSE,FALSE,FALSE,FALSE,FALSE,FALSE,FALSE,FALSE,FALSE,FALSE,Day,Day,Day,Day
A-2716609,2,08/02/16 11:51,08/02/16 17:51,41.37531,-81.82017,41.36786,-81.82174,0.521,At Bagley Rd/Exit 235 - Accident.,,I-71 S,R,Cleveland,Cuyahoga,OH,44130,US,US/Eastern,KCLE,08/02/16 11:51,33.1,30,92,29.63,0.5,SW,3.5,0.08,Snow,FALSE,FALSE,FALSE,FALSE,TRUE,FALSE,FALSE,FALSE,FALSE,FALSE,FALSE,FALSE,FALSE,Day,Day,Day,Day
A-2716610,2,08/02/16 14:19,08/02/16 20:19,40.702247,-84.075887,40.69911,-84.084293,0.491,At OH-65/Exit 122 - Accident.,,E Hanthorn Rd,R,Lima,Allen,OH,45806,US,US/Eastern,KAOH,08/02/16 13:53,39,31.8,70,29.59,10,WNW,11.5,,Overcast,FALSE,FALSE,FALSE,FALSE,FALSE,FALSE,FALSE,FALSE,FALSE,FALSE,FALSE,FALSE,FALSE,Day,Day,Day,Day
A-2716611,2,08/02/16 15:16,08/02/16 21:16,40.10931,-82.96849,40.11078,-82.984,0.826,At I-71/Exit 26 - Accident.,,Outerbelt W,R,Westerville,Franklin,OH,43081,US,US/Eastern,KCMH,08/02/16 15:12,32,28.7,100,29.59,0.5,West,3.5,0.05,Snow,FALSE,FALSE,FALSE,FALSE,FALSE,FALSE,FALSE,FALSE,FALSE,FALSE,FALSE,FALSE,FALSE,Day,Day,Day,Day
A-2716612,2,08/02/16 15:43,08/02/16 21:43,39.19288,-84.47723,39.19615,-84.47335,0.307,At OH-4/Paddock Rd/Exit 9 - Accident.,,I-75 N,R,Cincinnati,Hamilton,OH,45216,US,US/Eastern,KLUK,08/02/16 15:47,33.8,29.6,100,29.66,3,NNW,4.6,0.03,Light Snow,FALSE,FALSE,FALSE,FALSE,FALSE,FALSE,FALSE,FALSE,FALSE,FALSE,FALSE,FALSE,FALSE,Day,Day,Day,Day
A-2716613,2,08/02/16 16:50,08/02/16 22:50,39.13877,-84.53394,39.13977,-84.5343,0.072,At US-52/Hopple St/Exit 3 - Accident.,,Hopple St,R,Cincinnati,Hamilton,OH,45225,US,US/Eastern,KLUK,08/02/16 16:53,35.1,32.2,96,29.69,10,South,3.5,,Overcast,FALSE,FALSE,TRUE,FALSE,FALSE,FALSE,FALSE,FALSE,FALSE,FALSE,FALSE,TRUE,FALSE,Day,Day,Day,Day
A-2716614,2,08/02/16 17:27,08/02/16 23:27,41.4739,-81.704233,41.47388,-81.70559,0.07,At US-42/Exit 170 - Accident.,,I-90 E,R,Cleveland,Cuyahoga,OH,44113,US,US/Eastern,KBKL,08/02/16 17:36,33.1,24.4,96,29.59,1.8,West,11.5,0,Light Snow,FALSE,FALSE,FALSE,FALSE,FALSE,FALSE,FALSE,FALSE,FALSE,FALSE,FALSE,FALSE,FALSE,Day,Day,Day,Day
A-2716615,2,08/02/16 17:30,08/02/16 23:30,39.582242,-83.677814,39.603013,-83.637319,2.59,Between OH-72/Exit 58 and US-35/Exit 65 - Accident.,,I-71 N,R,Jamestown,Greene,OH,45335,US,US/Eastern,KSGH,08/02/16 17:28,33.8,28.6,93,29.64,1,West,5.8,0.01,Light Snow,FALSE,FALSE,FALSE,FALSE,FALSE,FALSE,FALSE,FALSE,FALSE,FALSE,FALSE,FALSE,FALSE,Day,Day,Day,Day
A-2716616,3,08/02/16 18:11,09/02/16 0:11,40.151785,-81.312635,40.151747,-81.312682,0.004,At Shipley Rd - Accident.,48999, Titus Rd,R,Freeport,Guernsey,OH,43973,US,US/Eastern,KPHD,08/02/16 18:23,33.1,,92,29.62,10,Calm,,,Mostly Cloudy,FALSE,FALSE,FALSE,FALSE,FALSE,FALSE,FALSE,FALSE,FALSE,FALSE,FALSE,FALSE,FALSE,Night,Day,Day,Day
A-2716617,3,08/02/16 18:11,09/02/16 0:11,40.151747,-81.312682,40.151785,-81.312635,0.004,At Titus Rd - Accident.,22549, Cadiz Rd,L,Freeport,Harrison,OH,43973-8626,US,US/Eastern,KPHD,08/02/16 18:23,33.1,,92,29.62,10,Calm,,,Mostly Cloudy,FALSE,FALSE,FALSE,FALSE,FALSE,FALSE,FALSE,FALSE,FALSE,FALSE,FALSE,FALSE,FALSE,Night,Day,Day,Day
A-2716618,3,08/02/16 19:47,09/02/16 1:47,39.97241,-82.84695,39.98529,-82.85667,1.028,At OH-16/Broad St/Exit 39 - Accident.,,Outerbelt N,R,Columbus,Franklin,OH,43213,US,US/Eastern,KCMH,08/02/16 19:51,34,,100,29.65,6,Calm,,0.07,Overcast,FALSE,FALSE,FALSE,FALSE,FALSE,FALSE,FALSE,FALSE,FALSE,FALSE,FALSE,FALSE,FALSE,Night,Night,Night,Night
A-2716619,2,08/02/16 19:47,09/02/16 1:47,39.9838,-82.85657,39.9725,-82.84746,0.918,At I-270 - Accident.,,Outerbelt S,R,Columbus,Franklin,OH,43213,US,US/Eastern,KCMH,08/02/16 19:51,34,,100,29.65,6,Calm,,0.07,Overcast,FALSE,FALSE,FALSE,FALSE,FALSE,FALSE,FALSE,FALSE,FALSE,FALSE,FALSE,FALSE,FALSE,Night,Night,Night,Night
A-2716620,3,08/02/16 20:13,09/02/16 2:13,40.02664,-82.9944,40.01228,-82.99218,0.999,Between Weber Rd/Exit 113 and Hudson St/Exit 112 - Accident.,,North Fwy S,R,Columbus,Franklin,OH,43224,US,US/Eastern,KCMH,08/02/16 20:12,33.8,27,100,29.63,1,West,8.1,0,Light Snow,FALSE,FALSE,FALSE,FALSE,FALSE,FALSE,FALSE,FALSE,FALSE,FALSE,FALSE,FALSE,FALSE,Night,Night,Night,Night
A-2716621,4,08/02/16 21:00,09/02/16 3:00,41.679361,-83.573037,41.666124,-83.566335,0.978,Closed between I-475/Exit 204 and US-24/Detroit Ave/Exit 203 - Road closed due to accident.,,I-75 S,R,Toledo,Lucas,OH,43610,US,US/Eastern,KDUH,08/02/16 20:55,33.4,26.6,79,29.62,10,West,8.1,,Overcast,FALSE,FALSE,FALSE,FALSE,FALSE,FALSE,FALSE,FALSE,FALSE,FALSE,FALSE,FALSE,FALSE,Night,Night,Night,Night
A-2716622,2,08/02/16 21:10,09/02/16 3:10,40.99613,-85.26613,40.98982,-85.26986,0.477,At Fort Wayne - Accident.,,US-33 S,R,Roanoke,Allen,IN,46783,US,US/Eastern,KFWA,08/02/16 20:54,28,16.1,88,29.71,8,West,16.1,0,Light Snow,FALSE,FALSE,FALSE,FALSE,FALSE,FALSE,FALSE,FALSE,FALSE,FALSE,FALSE,FALSE,FALSE,Night,Night,Night,Night
A-2716623,3,08/02/16 21:30,09/02/16 3:30,39.0381,-84.59243,39.03475,-84.60007,0.471,At I-275/Exit 185 - Accident.,,I-75 S,R,Ft Mitchell,Kenton,KY,41017,US,US/Eastern,KCVG,08/02/16 21:15,26.6,15.2,80,29.73,3,West,13.8,0,Light Snow,FALSE,FALSE,FALSE,FALSE,FALSE,FALSE,FALSE,FALSE,FALSE,FALSE,FALSE,FALSE,FALSE,Night,Night,Night,Night
A-2716624,2,09/02/16 5:54,09/02/16 11:54,40.03386,-82.99601,40.02246,-82.99515,0.789,Between Broadway/Exit 114 and Weber Rd/Exit 113 - Accident.,,North Fwy N,R,Columbus,Franklin,OH,43224,US,US/Eastern,KCMH,09/02/16 5:51,25,15.5,88,29.65,1,SW,9.2,0.02,Light Snow,FALSE,FALSE,FALSE,FALSE,FALSE,FALSE,FALSE,FALSE,FALSE,FALSE,FALSE,FALSE,FALSE,Night,Night,Night,Night
A-2716625,2,09/02/16 6:10,09/02/16 12:10,39.85798,-84.28181,39.86441,-84.21554,3.543,Between OH-48/Exit 29 and Dayton Intl Airport Rd/Exit 32 - Accident.,,I-70 E,R,Dayton,Montgomery,OH,45415,US,US/Eastern,KDAY,09/02/16 6:03,23,10.1,88,29.66,2,West,15,0,Light Snow,FALSE,FALSE,FALSE,FALSE,FALSE,FALSE,FALSE,FALSE,FALSE,FALSE,FALSE,FALSE,FALSE,Night,Night,Night,Day
A-2716626,2,09/02/16 6:46,09/02/16 12:46,39.15267,-84.5395,39.14745,-84.53923,0.361,At I-74/US-52/US-27/Exit 4 - Accident.,,I-75 S,R,Cincinnati,Hamilton,OH,45223,US,US/Eastern,KLUK,09/02/16 6:53,21,9.3,88,29.78,1.5,WSW,11.5,0.01,Light Snow,FALSE,FALSE,FALSE,FALSE,FALSE,FALSE,FALSE,FALSE,FALSE,FALSE,FALSE,FALSE,FALSE,Night,Night,Day,Day
A-2716627,2,09/02/16 7:18,09/02/16 13:18,39.30732,-85.95982,39.30457,-85.96284,0.249,At US-31/Exit 76 - Accident.,,I-65 S,R,Edinburgh,Bartholomew,IN,46124,US,US/Eastern,K1II,09/02/16 6:50,19,9,100,29.05,2,W,9,,Cloudy,FALSE,FALSE,FALSE,FALSE,FALSE,FALSE,FALSE,FALSE,FALSE,FALSE,FALSE,FALSE,FALSE,Night,Day,Day,Day
A-2716628,4,09/02/16 7:28,09/02/16 13:28,39.77572,-84.04815,39.76485,-84.09274,2.484,Closed between OH-844/Fairfield Rd/Exit 17 and Colonel Glenn Hwy/Exit 15 - Road closed due to accident.,,I-675 S,R,Fairborn,Greene,OH,45324,US,US/Eastern,KFFO,09/02/16 7:08,23,12.4,86,29.68,1.5,SW,10.4,,Light Snow,FALSE,FALSE,FALSE,FALSE,FALSE,FALSE,FALSE,FALSE,FALSE,FALSE,FALSE,FALSE,FALSE,Night,Day,Day,Day
A-2716629,2,09/02/16 7:25,09/02/16 13:25,39.97643,-83.12306,39.97609,-83.11068,0.656,At I-270/Exit 93 - Accident.,,I-70 E,R,Columbus,Franklin,OH,43228,US,US/Eastern,KTZR,09/02/16 7:20,21.2,8.3,93,29.66,1.5,WSW,13.8,,Light Snow,FALSE,FALSE,FALSE,FALSE,FALSE,FALSE,FALSE,FALSE,FALSE,FALSE,FALSE,FALSE,FALSE,Night,Day,Day,Day
A-2716630,3,09/02/16 7:44,09/02/16 13:44,39.58595,-85.82518,39.58444,-85.82301,0.156,At Fairland Rd/400/Exit 109 - Accident.,,US-421 S,R,Shelbyville,Shelby,IN,46176,US,US/Eastern,KGEZ,09/02/16 7:41,21.9,9.8,82,29.75,1.5,West,12.7,0,Light Snow,FALSE,FALSE,FALSE,FALSE,FALSE,FALSE,FALSE,FALSE,FALSE,FALSE,FALSE,FALSE,FALSE,Day,Day,Day,Day
A-2716631,3,09/02/16 7:48,09/02/16 13:48,39.3638,-85.51659,39.45279,-85.628,8.554,Between US-421/Exit 132 and US-421/Exit 123 - Accident.,,I-74 W,R,Greensburg,Decatur,IN,47240,US,US/Eastern,KBAK,09/02/16 6:50,19.4,8.6,100,29.78,2,West,9.2,,Light Snow,FALSE,FALSE,FALSE,FALSE,FALSE,FALSE,FALSE,FALSE,FALSE,FALSE,FALSE,FALSE,FALSE,Day,Day,Day,Day
A-2716632,3,09/02/16 7:48,09/02/16 13:48,39.45132,-85.62516,39.36277,-85.51655,8.429,Between US-421/Exit 123 and US-421/Exit 132 - Accident.,,US-421 S,R,Saint Paul,Decatur,IN,47272,US,US/Eastern,KGEZ,09/02/16 7:48,21.2,8.9,86,29.75,3,West,12.7,0,Light Snow,FALSE,FALSE,FALSE,FALSE,FALSE,FALSE,FALSE,FALSE,FALSE,FALSE,FALSE,FALSE,FALSE,Day,Day,Day,Day
A-2716633,2,09/02/16 8:00,09/02/16 14:00,39.75067,-84.14148,39.74883,-84.13402,0.416,At Smithville Rd - Accident.,,US-35 E,R,Dayton,Montgomery,OH,45410,US,US/Eastern,KFFO,09/02/16 7:58,22.5,12.4,90,29.73,1.2,SW,9.2,0,Light Snow,FALSE,FALSE,FALSE,FALSE,FALSE,FALSE,FALSE,FALSE,FALSE,FALSE,FALSE,FALSE,FALSE,Day,Day,Day,Day
A-2716634,3,09/02/16 8:02,09/02/16 14:02,39.2675,-81.49929,39.26867,-81.49909,0.082,At US-50/Exit 176 - Accident.,,US-50 E,R,Parkersburg,Wood,WV,26104,US,US/Eastern,KPKB,09/02/16 7:53,24.1,13.7,88,29.72,1,WSW,10.4,0.02,Light Snow,FALSE,FALSE,FALSE,FALSE,FALSE,FALSE,FALSE,FALSE,FALSE,FALSE,FALSE,FALSE,FALSE,Day,Day,Day,Day
A-2716635,2,09/02/16 8:18,09/02/16 14:18,39.86025,-85.96623,39.86025,-85.96623,0,At High Timber Dr - Accident.,5800, Long Lake Ln,L,Indianapolis,Marion,IN,46235-6127,US,US/Eastern,KMQJ,09/02/16 8:14,19.4,5,86,29.76,5,WNW,16.1,,Overcast,FALSE,FALSE,FALSE,FALSE,FALSE,FALSE,FALSE,FALSE,FALSE,FALSE,FALSE,FALSE,FALSE,Day,Day,Day,Day
A-2716636,2,09/02/16 9:07,09/02/16 15:07,41.95677,-83.67214,41.95939,-83.67235,0.181,At M-50/Exit 17 - Accident.,,US-23 N,R,Dundee,Monroe,MI,48131,US,US/Eastern,KTTF,09/02/16 9:14,30.2,22.6,93,29.58,1.2,West,8.1,,Light Snow,FALSE,FALSE,FALSE,FALSE,FALSE,FALSE,FALSE,FALSE,FALSE,FALSE,FALSE,FALSE,FALSE,Day,Day,Day,Day
A-2716637,3,09/02/16 10:07,09/02/16 16:07,38.27401,-85.74844,38.28558,-85.75518,0.879,Between US-31/IN-62 and Stansifer Ave/Exit 1 - Accident.,,I-65 S,R,Jeffersonville,Clark,IN,47130,US,US/Eastern,KLOU,09/02/16 9:53,23,11.1,74,29.87,10,West,12.7,,Overcast,FALSE,FALSE,FALSE,FALSE,FALSE,FALSE,FALSE,FALSE,FALSE,FALSE,FALSE,FALSE,FALSE,Day,Day,Day,Day
A-2716638,2,09/02/16 11:09,09/02/16 17:09,41.95677,-83.67214,41.95939,-83.67235,0.181,At M-50/Exit 17 - Accident.,,US-23 N,R,Dundee,Monroe,MI,48131,US,US/Eastern,KTTF,09/02/16 11:15,31.8,22.3,84,29.6,2.5,WNW,12.7,,Light Snow,FALSE,FALSE,FALSE,FALSE,FALSE,FALSE,FALSE,FALSE,FALSE,FALSE,FALSE,FALSE,FALSE,Day,Day,Day,Day
A-2716639,2,09/02/16 11:28,09/02/16 17:28,40.52225,-80.06666,40.5283,-80.07188,0.5,At Camp Horne Rd/Exit 15 - Accident.,,I-279 N,R,Pittsburgh,Allegheny,PA,15237,US,US/Eastern,KPIT,09/02/16 11:12,30,20,88,29.56,1.5,West,12.7,0,Light Snow,FALSE,FALSE,FALSE,FALSE,FALSE,FALSE,FALSE,FALSE,FALSE,FALSE,FALSE,FALSE,FALSE,Day,Day,Day,Day
A-2716640,2,09/02/16 12:31,09/02/16 18:31,40.487814,-80.009439,40.48614,-80.009008,0.118,At Venture St/Exit 10 - Accident.,,US-19 Trk S,R,Pittsburgh,Allegheny,PA,15214,US,US/Eastern,KAGC,09/02/16 12:53,28.9,18.2,82,29.61,1,SW,13.8,0,Light Snow,FALSE,FALSE,FALSE,FALSE,FALSE,FALSE,FALSE,FALSE,FALSE,FALSE,FALSE,FALSE,FALSE,Day,Day,Day,Day
A-2716641,4,09/02/16 15:33,09/02/16 21:33,40.156298,-83.018431,40.153321,-83.018205,0.206,Closed at Gold Meadow Dr - Road closed due to accident.,9219, Columbus Pike,L,Lewis Center,Delaware,OH,43035-9415,US,US/Eastern,KDLZ,09/02/16 15:36,26.6,16.8,86,29.68,2,West,10.4,,Light Snow,FALSE,FALSE,FALSE,FALSE,FALSE,FALSE,FALSE,FALSE,FALSE,FALSE,FALSE,FALSE,FALSE,Day,Day,Day,Day
A-2716642,2,09/02/16 17:12,09/02/16 23:12,41.47461,-81.71182,41.47023,-81.74188,1.585,Between 41st St/Exit 169 and OH-10/Lorain Ave/Exit 167 - Accident.,,Northwest Fwy W,R,Cleveland,Cuyahoga,OH,44113,US,US/Eastern,KBKL,09/02/16 17:13,30.9,18.7,92,29.62,1,West,19.6,0,Light Snow,FALSE,FALSE,FALSE,FALSE,FALSE,FALSE,FALSE,FALSE,FALSE,FALSE,FALSE,FALSE,FALSE,Day,Day,Day,Day
A-2716643,2,09/02/16 17:13,09/02/16 23:13,41.0618,-81.54608,41.06193,-81.54149,0.239,At OH-59/Exit 21 - Accident.,,I-76 E,R,Akron,Summit,OH,44307,US,US/Eastern,KAKR,09/02/16 17:13,28.9,20.4,82,29.62,2.5,SW,9.2,0,Light Snow,FALSE,FALSE,FALSE,FALSE,FALSE,FALSE,FALSE,FALSE,FALSE,FALSE,FALSE,FALSE,FALSE,Day,Day,Day,Day
A-2716644,4,09/02/16 18:20,10/02/16 0:20,40.45112,-85.15048,40.35429,-85.14993,6.69,Closed between IN-26 and IN-67 - Road closed due to accident.,9001, W State Road 26,R,Dunkirk,Jay,IN,47336,US,US/Eastern,KMIE,09/02/16 18:20,19.9,7.3,81,29.85,2,WNW,12.7,0,Light Snow,FALSE,FALSE,FALSE,FALSE,FALSE,FALSE,FALSE,FALSE,FALSE,FALSE,FALSE,FALSE,FALSE,Night,Day,Day,Day
A-2716645,4,09/02/16 18:20,10/02/16 0:20,40.35429,-85.14993,40.45112,-85.15048,6.69,Closed between IN-67 and IN-26 - Road closed due to accident.,473, N Meridian St,R,Redkey,Jay,IN,47373-9430,US,US/Eastern,KMIE,09/02/16 18:20,19.9,7.3,81,29.85,2,WNW,12.7,0,Light Snow,FALSE,FALSE,FALSE,FALSE,FALSE,FALSE,FALSE,FALSE,FALSE,FALSE,FALSE,FALSE,FALSE,Night,Day,Day,Day
A-2716646,4,09/02/16 22:37,10/02/16 4:37,39.75855,-85.13715,39.74408,-85.13749,1,Closed between Lindsey Rd and Bentonville Rd - Road closed due to accident.,5149, S State Road 1,R,Milton,Wayne,IN,47357-9741,US,US/Eastern,KAID,09/02/16 15:45,23,11.7,80,29.79,3,WNW,11.5,,Light Snow,FALSE,FALSE,FALSE,FALSE,FALSE,FALSE,FALSE,FALSE,FALSE,FALSE,FALSE,FALSE,FALSE,Night,Night,Night,Night
A-2716647,4,09/02/16 22:37,10/02/16 4:37,39.74408,-85.13749,39.75855,-85.13715,1,Closed between Bentonville Rd and Lindsey Rd - Road closed due to accident.,6114, S State Road 1,L,Milton,Wayne,IN,47357,US,US/Eastern,KAID,09/02/16 15:45,23,11.7,80,29.79,3,WNW,11.5,,Light Snow,FALSE,FALSE,FALSE,FALSE,FALSE,FALSE,FALSE,FALSE,FALSE,FALSE,FALSE,FALSE,FALSE,Night,Night,Night,Night
A-2716648,4,10/02/16 6:17,10/02/16 12:17,39.965148,-83.020499,39.976605,-83.021071,0.792,Closed between US-33/Dublin Rd and Goodale St - Road closed due to accident.,,W Innerbelt N,R,Columbus,Franklin,OH,43215,US,US/Eastern,KCMH,10/02/16 6:19,15.8,2.7,73,29.87,4,WSW,11.5,0,Light Snow,FALSE,FALSE,FALSE,FALSE,FALSE,FALSE,FALSE,FALSE,FALSE,FALSE,FALSE,FALSE,FALSE,Night,Night,Night,Day
A-2716649,4,10/02/16 6:18,10/02/16 12:18,40.72813,-84.78965,40.74559,-84.78962,1.206,Closed between Willshire and US-33/Rockford Rd - Road closed due to accident.,12998, State Route 49,R,Willshire,Van Wert,OH,45898-9523,US,US/Eastern,KFWA,10/02/16 5:54,17.1,0.6,77,29.91,2.5,West,19.6,0.01,Light Snow,FALSE,FALSE,FALSE,FALSE,FALSE,FALSE,FALSE,FALSE,FALSE,FALSE,FALSE,FALSE,FALSE,Night,Night,Night,Day
A-2716650,2,10/02/16 6:29,10/02/16 12:29,39.85223,-85.25847,39.85227,-85.26282,0.231,At Wilbur Wright Rd/Exit 131 - Accident.,,I-70 W,R,Straughn,Henry,IN,47387,US,US/Eastern,KAID,10/02/16 8:46,12.2,-1.8,85,29.97,2,West,11.5,,Light Snow,FALSE,FALSE,FALSE,FALSE,FALSE,FALSE,FALSE,FALSE,FALSE,FALSE,FALSE,FALSE,FALSE,Night,Night,Night,Day
A-2716651,2,10/02/16 8:19,10/02/16 14:19,41.46747,-81.75909,41.47442,-81.71182,2.494,Between West Blvd/98th St/Exit 167 and 41st St/Exit 169 - Accident.,,I-90 E,R,Cleveland,Cuyahoga,OH,44111,US,US/Eastern,KCLE,10/02/16 7:51,19.9,5.7,78,29.83,8,WSW,16.1,0,Light Snow,FALSE,FALSE,FALSE,FALSE,FALSE,FALSE,FALSE,FALSE,FALSE,FALSE,FALSE,FALSE,FALSE,Day,Day,Day,Day
A-2716652,2,10/02/16 8:35,10/02/16 14:35,41.83193,-80.10143,41.84149,-80.11099,0.824,Between Irish Rd and Blystone Rd - Accident.,25529, Highway 99,L,Cambridge Springs,Crawford,PA,16403,US,US/Eastern,KGKJ,10/02/16 8:34,21,9.9,85,29.69,1,WSW,10.4,0,Light Snow,FALSE,FALSE,FALSE,FALSE,FALSE,FALSE,FALSE,FALSE,FALSE,FALSE,FALSE,FALSE,FALSE,Day,Day,Day,Day
A-2716653,2,10/02/16 8:44,10/02/16 14:44,39.744287,-84.204939,39.75052,-84.20541,0.431,At US-35/Albany St/Exit 52 - Accident.,,I-75 N,R,Dayton,Montgomery,OH,45417,US,US/Eastern,KDAY,10/02/16 8:47,14,-2.5,84,29.92,3,West,17.3,0,Light Snow,FALSE,FALSE,FALSE,FALSE,FALSE,FALSE,FALSE,FALSE,FALSE,FALSE,FALSE,FALSE,FALSE,Day,Day,Day,Day
A-2716654,3,10/02/16 8:39,10/02/16 14:39,39.71548,-84.22033,39.71767,-84.21632,0.261,At Dryden Rd/Exit 50 - Accident.,,I-75 N,R,Dayton,Montgomery,OH,45439,US,US/Eastern,KMGY,10/02/16 8:33,14,1.2,80,29.93,1.5,WSW,10.4,0,Light Snow,FALSE,FALSE,FALSE,FALSE,FALSE,FALSE,FALSE,FALSE,FALSE,FALSE,FALSE,FALSE,FALSE,Day,Day,Day,Day
A-2716655,2,10/02/16 8:39,10/02/16 14:39,39.7504,-84.20561,39.73167,-84.2058,1.294,Between US-35/Albany St/Exit 52 and Edwin C Moses Blvd/Exit 51 - Accident.,,I-75 N,R,Dayton,Montgomery,OH,45402,US,US/Eastern,KFFO,10/02/16 8:58,15.3,2.8,81,29.98,2,WSW,10.4,0,Light Snow,FALSE,FALSE,FALSE,FALSE,FALSE,FALSE,FALSE,FALSE,FALSE,FALSE,FALSE,FALSE,FALSE,Day,Day,Day,Day
A-2716656,2,10/02/16 8:48,10/02/16 14:48,41.72316,-84.96444,41.715052,-84.951306,0.879,Between James Whitcomb Riley Service Area and Eastpoint Barrier Toll Plaza - Accident.,,I-90 E,R,Fremont,Steuben,IN,46737,US,US/Eastern,KANQ,10/02/16 8:55,17.6,10.7,93,29.83,2,West,4.6,,,FALSE,FALSE,FALSE,FALSE,FALSE,FALSE,FALSE,FALSE,FALSE,FALSE,FALSE,FALSE,FALSE,Day,Day,Day,Day
A-2716657,2,10/02/16 9:06,10/02/16 15:06,40.04376,-82.99708,40.06376,-82.99679,1.382,Between Cooke Rd/Exit 115 and Morse Rd/Exit 116 - Accident.,,North Fwy N,R,Columbus,Franklin,OH,43224,US,US/Eastern,KCMH,10/02/16 9:07,15.8,3.4,79,29.9,1,WSW,10.4,0.01,Light Snow,FALSE,FALSE,FALSE,FALSE,FALSE,FALSE,FALSE,FALSE,FALSE,FALSE,FALSE,FALSE,FALSE,Day,Day,Day,Day
A-2716658,2,10/02/16 9:06,10/02/16 15:06,38.1781,-85.71946,38.18104,-85.72116,0.223,At KY-61/Grade Lane/Exit 130 - Accident.,,Dr Martin Luther King Jr Expy N,R,Louisville,Jefferson,KY,40213,US,US/Eastern,KSDF,10/02/16 8:56,17.1,5.8,68,30.12,10,West,9.2,0,Mostly Cloudy,FALSE,FALSE,FALSE,FALSE,FALSE,FALSE,FALSE,FALSE,FALSE,FALSE,FALSE,FALSE,FALSE,Day,Day,Day,Day
A-2716659,2,10/02/16 9:08,10/02/16 15:08,38.18577,-85.80678,38.20648,-85.82785,1.832,Between US-31/US-60/Exit 8 and South Cane Run Rd/Exit 5 - Accident.,,Henry Watterson Expy W,R,Louisville,Jefferson,KY,40216,US,US/Eastern,KSDF,10/02/16 8:56,17.1,5.8,68,30.12,10,West,9.2,0,Mostly Cloudy,FALSE,FALSE,FALSE,FALSE,FALSE,FALSE,FALSE,FALSE,FALSE,FALSE,FALSE,FALSE,FALSE,Day,Day,Day,Day
A-2716660,3,10/02/16 9:08,10/02/16 15:08,38.27191,-85.80838,38.27191,-85.80838,0,At Bank St/Exit 1 - Accident.,,Henry Watterson Expy W,R,Louisville,Jefferson,KY,40212,US,US/Eastern,KSDF,10/02/16 8:56,17.1,5.8,68,30.12,10,West,9.2,0,Mostly Cloudy,FALSE,FALSE,FALSE,FALSE,FALSE,FALSE,FALSE,FALSE,FALSE,FALSE,FALSE,FALSE,FALSE,Day,Day,Day,Day
A-2716661,2,10/02/16 9:18,10/02/16 15:18,39.923905,-82.87008,39.93844,-82.84829,1.53,At I-70/US-40/Main St/Exit 43 - Accident.,,Outerbelt N,R,Columbus,Franklin,OH,43232,US,US/Eastern,KCMH,10/02/16 9:07,15.8,3.4,79,29.9,1,WSW,10.4,0.01,Light Snow,FALSE,FALSE,FALSE,FALSE,FALSE,FALSE,FALSE,FALSE,FALSE,FALSE,FALSE,FALSE,FALSE,Day,Day,Day,Day
A-2716662,2,10/02/16 9:34,10/02/16 15:34,41.035566,-81.569917,41.036015,-81.579895,0.521,At OH-619/Wooster Rd/Exit 17 - Accident.,,I-76 W,R,Akron,Summit,OH,44314,US,US/Eastern,KAKR,10/02/16 9:46,21,6.6,74,29.79,1.5,WSW,17.3,0,Light Snow,FALSE,FALSE,FALSE,FALSE,TRUE,FALSE,FALSE,FALSE,FALSE,FALSE,FALSE,FALSE,FALSE,Day,Day,Day,Day
A-2716663,3,10/02/16 10:18,10/02/16 16:18,39.9239,-83.68767,39.93271,-83.61197,4.057,Between US-40/Exit 62 and OH-54/Exit 66 - Accident.,,E National Rd,R,South Charleston,Clark,OH,45368,US,US/Eastern,KSGH,10/02/16 10:15,15.8,0.3,79,29.94,2,WSW,16.1,0,Light Snow,FALSE,FALSE,FALSE,FALSE,FALSE,FALSE,FALSE,FALSE,FALSE,FALSE,FALSE,FALSE,FALSE,Day,Day,Day,Day
A-2716664,2,10/02/16 10:21,10/02/16 16:21,41.851914,-80.175232,41.858231,-80.176444,0.441,At US-6/Exit 166 - Accident.,,I-79 N,R,Edinboro,Erie,PA,16412,US,US/Eastern,KERI,10/02/16 10:16,24.1,12.5,77,29.72,0.8,West,12.7,0.04,Light Snow,FALSE,FALSE,FALSE,FALSE,FALSE,FALSE,FALSE,FALSE,FALSE,FALSE,FALSE,FALSE,FALSE,Day,Day,Day,Day
A-2716665,2,10/02/16 10:47,10/02/16 16:47,39.93849,-82.84849,39.89923,-82.90135,3.899,Between I-70/US-40/Main St/Exit 43 and US-33/Exit 46 - Accident.,,Outerbelt S,R,Columbus,Franklin,OH,43232,US,US/Eastern,KCMH,10/02/16 10:51,17.1,3,77,29.96,1.5,West,13.8,0,Light Snow,FALSE,FALSE,FALSE,FALSE,FALSE,FALSE,FALSE,FALSE,FALSE,FALSE,FALSE,FALSE,FALSE,Day,Day,Day,Day
A-2716666,2,10/02/16 11:09,10/02/16 17:09,38.96943,-80.1096,39.00263,-80.22647,6.683,At Talbott Rd - Accident.,,US-33 E,R,Buckhannon,Upshur,WV,26201,US,US/Eastern,KW22,10/02/16 11:15,15.8,,79,29.87,6,Calm,,,Light Snow,FALSE,FALSE,FALSE,FALSE,FALSE,FALSE,FALSE,FALSE,FALSE,FALSE,FALSE,FALSE,FALSE,Day,Day,Day,Day
A-2716667,2,10/02/16 11:09,10/02/16 17:09,39.00248,-80.22624,38.96911,-80.11072,6.619,At Talbott Rd - Accident.,,US-33 E,R,Buckhannon,Upshur,WV,26201,US,US/Eastern,KW22,10/02/16 11:15,15.8,,79,29.87,6,Calm,,,Light Snow,FALSE,FALSE,FALSE,FALSE,FALSE,FALSE,FALSE,FALSE,FALSE,FALSE,FALSE,FALSE,FALSE,Day,Day,Day,Day
A-2716668,2,10/02/16 11:55,10/02/16 17:55,41.66805,-83.57063,41.66553,-83.56532,0.325,At US-24/Detroit Ave/Exit 203 - Accident.,,I-75 S,R,Toledo,Lucas,OH,43606,US,US/Eastern,KDUH,10/02/16 11:55,21.9,12.5,68,29.87,10,NW,8.1,,Overcast,FALSE,FALSE,FALSE,FALSE,FALSE,FALSE,FALSE,FALSE,FALSE,FALSE,FALSE,FALSE,FALSE,Day,Day,Day,Day
A-2716669,2,10/02/16 12:54,10/02/16 18:54,41.48339,-81.66297,41.47692,-81.66075,0.462,At I-490/Exit 161 - Accident.,3937, Iron Ct,L,Cleveland,Cuyahoga,OH,44115,US,US/Eastern,KBKL,10/02/16 12:53,24.1,7.1,75,29.82,2,West,28.8,0,Light Snow,FALSE,FALSE,FALSE,FALSE,FALSE,FALSE,FALSE,FALSE,FALSE,FALSE,FALSE,FALSE,FALSE,Day,Day,Day,Day
A-2716670,3,10/02/16 13:34,10/02/16 19:34,41.50127,-81.4804,41.50311,-81.47745,0.199,At Brainard Rd/Cedar Rd/Exit 32 - Accident.,,I-271 N,R,Cleveland,Cuyahoga,OH,44124,US,US/Eastern,KCGF,10/02/16 13:45,24.8,11.9,80,29.8,1.5,West,16.1,,Light Snow,FALSE,FALSE,FALSE,FALSE,FALSE,FALSE,FALSE,FALSE,FALSE,FALSE,FALSE,FALSE,FALSE,Day,Day,Day,Day
A-2716671,4,10/02/16 13:59,10/02/16 19:59,39.789093,-82.989106,39.72395,-82.9867,4.503,Closed between OH-762/Duvall Rd and OH-752 - Road closed due to accident.,9935, US Highway 23,R,Lockbourne,Franklin,OH,43137-9656,US,US/Eastern,KLCK,10/02/16 13:55,18,2.6,81,29.95,1.5,West,17.3,,Light Snow,FALSE,FALSE,FALSE,FALSE,FALSE,FALSE,FALSE,FALSE,FALSE,FALSE,FALSE,FALSE,FALSE,Day,Day,Day,Day
A-2716672,4,10/02/16 14:57,10/02/16 20:57,41.67073,-81.24561,41.71039,-81.17253,4.661,Closed between OH-44/Exit 200 and Vrooman Rd/Exit 205 - Road closed due to accident.,,I-90 E,R,Painesville,Lake,OH,44077,US,US/Eastern,KCGF,10/02/16 14:45,19.4,5,86,29.82,3,WNW,16.1,,Light Snow,FALSE,FALSE,FALSE,FALSE,FALSE,FALSE,FALSE,FALSE,FALSE,FALSE,FALSE,FALSE,FALSE,Day,Day,Day,Day
A-2716673,4,10/02/16 14:59,10/02/16 20:59,41.70846,-81.17636,41.66819,-81.25265,4.82,Closed between Vrooman Rd/Exit 205 and OH-44/Exit 200 - Road closed due to accident.,,I-90 W,R,Painesville,Lake,OH,44077,US,US/Eastern,KCGF,10/02/16 14:45,19.4,5,86,29.82,3,WNW,16.1,,Light Snow,FALSE,FALSE,FALSE,FALSE,FALSE,FALSE,FALSE,FALSE,FALSE,FALSE,FALSE,FALSE,FALSE,Day,Day,Day,Day
A-2716674,2,10/02/16 15:31,10/02/16 21:31,41.44246,-81.78485,41.4453,-81.77379,0.606,At 130th St/Bellaire Rd/Exit 242 - Accident. in the right lane.,,I-71 N,R,Cleveland,Cuyahoga,OH,44135,US,US/Eastern,KCLE,10/02/16 15:35,21.9,11,63,29.86,5,West,10.4,0,Light Snow,FALSE,FALSE,FALSE,FALSE,FALSE,FALSE,FALSE,FALSE,FALSE,FALSE,FALSE,FALSE,FALSE,Day,Day,Day,Day
A-2716675,2,10/02/16 15:31,10/02/16 21:31,39.77128,-84.1923,39.76697,-84.19893,0.461,At OH-48/Grand Ave/Exit 54 - Accident. in the right lane.,,I-75 S,R,Dayton,Montgomery,OH,45405,US,US/Eastern,KDAY,10/02/16 15:56,16,-0.4,65,30.03,10,West,18.4,,Overcast,FALSE,FALSE,FALSE,FALSE,FALSE,FALSE,FALSE,FALSE,FALSE,FALSE,FALSE,FALSE,FALSE,Day,Day,Day,Day
A-2716676,2,10/02/16 15:31,10/02/16 21:31,41.50499,-81.47417,41.49859,-81.48381,0.667,At Brainard Rd/Cedar Rd/Exit 32 - Accident. in the right lane.,,Outerbelt East Fwy S,R,Cleveland,Cuyahoga,OH,44124,US,US/Eastern,KCGF,10/02/16 15:45,21.2,7.3,74,29.83,7,NNW,16.1,,Overcast,FALSE,FALSE,FALSE,FALSE,FALSE,FALSE,FALSE,FALSE,FALSE,FALSE,FALSE,FALSE,FALSE,Day,Day,Day,Day
A-2716677,4,10/02/16 16:06,10/02/16 22:06,40.109653,-80.2029,40.020034,-80.175188,6.363,Closed between US-19/Exit 30 and Ten Mile Rd/Exit 23 - Road closed due to accident.,,I-79 S,R,Washington,Washington,PA,15301,US,US/Eastern,KAFJ,10/02/16 16:15,19.4,6.6,74,29.84,3,SW,12.7,,Overcast,FALSE,FALSE,FALSE,FALSE,FALSE,FALSE,FALSE,FALSE,FALSE,FALSE,FALSE,FALSE,FALSE,Day,Day,Day,Day
A-2716678,2,10/02/16 17:01,10/02/16 23:01,38.38852,-81.7687,38.39031,-81.76928,0.128,At WV-25/Exit 50 - Accident.,,I-64 W,R,Dunbar,Kanawha,WV,25064,US,US/Eastern,KCRW,10/02/16 16:54,21,7.6,57,30.02,9,West,15,0,Light Snow,FALSE,FALSE,FALSE,FALSE,FALSE,FALSE,FALSE,FALSE,FALSE,FALSE,FALSE,FALSE,FALSE,Day,Day,Day,Day
A-2716679,2,10/02/16 17:30,10/02/16 23:30,41.03572,-81.57809,41.04078,-81.61203,1.803,Between OH-619/Wooster Rd/Exit 17 and Barber Rd/Exit 16 - Accident. in the left lane.,,N Wooster Rd,R,Akron,Summit,OH,44314,US,US/Eastern,KAKR,10/02/16 17:36,19.9,11.1,81,29.86,3,West,6.9,0,Light Snow,FALSE,FALSE,FALSE,FALSE,FALSE,FALSE,FALSE,FALSE,FALSE,FALSE,FALSE,FALSE,FALSE,Day,Day,Day,Day
A-2716680,2,10/02/16 21:05,11/02/16 3:05,41.47487,-81.72095,41.47442,-81.71182,0.474,At 41st St/Exit 169 - Accident. in the right lane.,,I-90 E,R,Cleveland,Cuyahoga,OH,44102,US,US/Eastern,KBKL,10/02/16 21:05,21.9,4.8,68,29.92,1.8,West,26.5,0,Light Snow,FALSE,FALSE,FALSE,FALSE,FALSE,FALSE,FALSE,FALSE,FALSE,FALSE,FALSE,FALSE,FALSE,Night,Night,Night,Night
A-2716681,4,11/02/16 5:25,11/02/16 11:25,41.62845,-84.80559,41.62873,-84.80369,0.1,Closed at Ohio/Indiana State Line - Road closed due to accident.,,I-90 E,R,Angola,Steuben,IN,46703,US,US/Eastern,KANQ,11/02/16 5:35,12.2,6.1,92,30.09,9,West,3.5,,Overcast,FALSE,FALSE,FALSE,FALSE,FALSE,FALSE,FALSE,FALSE,FALSE,FALSE,FALSE,FALSE,FALSE,Night,Night,Night,Night
A-2716682,4,11/02/16 5:25,11/02/16 11:25,41.62894,-84.80373,41.62866,-84.80562,0.1,Closed at I-69/US-27/Exit 144 - Road closed due to accident.,,I-80 W,R,Edon,Williams,OH,43518,US,US/Eastern,KANQ,11/02/16 5:35,12.2,6.1,92,30.09,9,West,3.5,,Overcast,FALSE,FALSE,FALSE,FALSE,FALSE,FALSE,FALSE,FALSE,FALSE,FALSE,FALSE,FALSE,FALSE,Night,Night,Night,Night
A-2716683,3,11/02/16 5:35,11/02/16 11:35,41.16102,-81.78573,41.15666,-81.78646,0.304,At I-271/Exit 220 - Accident.,,I-71 S,R,Medina,Medina,OH,44256,US,US/Eastern,KCLE,11/02/16 5:51,14,0.5,56,30.14,9,NW,11.5,0,Light Snow,FALSE,FALSE,FALSE,FALSE,FALSE,FALSE,FALSE,FALSE,FALSE,FALSE,FALSE,FALSE,FALSE,Night,Night,Night,Night
A-2716684,4,11/02/16 6:25,11/02/16 12:25,41.628232,-84.808858,41.735609,-84.982632,11.638,Closed between Indiana/Ohio State Line and I-69/US-27/Exit 144 - Road closed due to accident.,,I-80 W,R,Angola,Steuben,IN,46703,US,US/Eastern,KANQ,11/02/16 6:35,12.2,4.3,92,30.12,10,WNW,4.6,,Overcast,FALSE,FALSE,FALSE,FALSE,FALSE,FALSE,FALSE,FALSE,FALSE,FALSE,FALSE,FALSE,FALSE,Night,Night,Night,Day
A-2716685,4,11/02/16 6:25,11/02/16 12:25,41.62986,-84.76619,41.62866,-84.80562,2.038,Closed between OH-49/Exit 2 and Indiana/Ohio State Line - Road closed due to accident.,,I-80 W,R,Edon,Williams,OH,43518,US,US/Eastern,KANQ,11/02/16 6:35,12.2,4.3,92,30.12,10,WNW,4.6,,Overcast,FALSE,FALSE,FALSE,FALSE,FALSE,FALSE,FALSE,FALSE,FALSE,FALSE,FALSE,FALSE,FALSE,Night,Night,Night,Day
A-2716686,2,11/02/16 6:26,11/02/16 12:26,39.74729,-84.21426,39.74876,-84.20146,0.688,At I-75 - Accident.,534, S Broadway St,L,Dayton,Montgomery,OH,45417-3466,US,US/Eastern,KDAY,11/02/16 5:56,7,-5.7,87,30.22,10,West,8.1,,Scattered Clouds,FALSE,FALSE,FALSE,FALSE,FALSE,FALSE,FALSE,FALSE,FALSE,FALSE,FALSE,FALSE,FALSE,Night,Night,Night,Day
A-2716687,2,11/02/16 6:35,11/02/16 12:35,41.42099,-81.69052,41.411,-81.66885,1.318,At OH-176/OH-17/Exit 17 - Accident.,,I-480 E,R,Cleveland,Cuyahoga,OH,44109,US,US/Eastern,KBKL,11/02/16 6:53,17.1,-0.3,59,30.12,10,NW,21.9,,Overcast,FALSE,FALSE,FALSE,FALSE,FALSE,FALSE,FALSE,FALSE,FALSE,FALSE,FALSE,FALSE,FALSE,Night,Night,Day,Day
A-2716688,3,11/02/16 6:53,11/02/16 12:53,41.42318,-81.84674,41.42192,-81.8429,0.217,At Grayton Rd/Exit 9 - Accident.,,I-480 E,R,Cleveland,Cuyahoga,OH,44135,US,US/Eastern,KCLE,11/02/16 6:51,14,-2,56,30.16,9,NW,16.1,0,Mostly Cloudy,FALSE,FALSE,FALSE,FALSE,FALSE,FALSE,FALSE,FALSE,FALSE,FALSE,FALSE,FALSE,FALSE,Night,Night,Day,Day
A-2716689,3,11/02/16 6:53,11/02/16 12:53,38.79691,-84.48273,38.80878,-84.49638,1.101,Between Crittenden and Visalia - Accident.,15983, Madison Pike,R,De Mossville,Pendleton,KY,41033-9698,US,US/Eastern,KCVG,11/02/16 6:52,12,4.1,77,30.24,10,West,4.6,,Overcast,FALSE,FALSE,FALSE,FALSE,FALSE,FALSE,FALSE,FALSE,FALSE,FALSE,FALSE,FALSE,FALSE,Night,Night,Day,Day
A-2716690,3,11/02/16 6:53,11/02/16 12:53,38.80878,-84.49638,38.79691,-84.48273,1.101,Between Visalia and Crittenden - Accident.,,Madison Pike,R,De Mossville,Kenton,KY,41033,US,US/Eastern,KCVG,11/02/16 6:52,12,4.1,77,30.24,10,West,4.6,,Overcast,FALSE,FALSE,FALSE,FALSE,FALSE,FALSE,FALSE,FALSE,FALSE,FALSE,FALSE,FALSE,FALSE,Night,Night,Day,Day
A-2716691,3,11/02/16 7:22,11/02/16 13:22,38.30155,-85.85499,38.30011,-85.84846,0.368,At I-265/Exit 121 - Accident.,,US-150 E,R,New Albany,Floyd,IN,47150,US,US/Eastern,KLOU,11/02/16 6:53,21,12.4,60,30.27,10,North,6.9,,Overcast,FALSE,FALSE,FALSE,FALSE,FALSE,FALSE,FALSE,FALSE,FALSE,FALSE,FALSE,FALSE,FALSE,Night,Day,Day,Day
A-2716692,2,11/02/16 7:20,11/02/16 13:20,38.33667,-81.65623,38.33614,-81.65623,0.037,Between Smith Rd and Tennis Club Rd - Accident.,207, Oakwood Rd,L,Charleston,Kanawha,WV,25314-2347,US,US/Eastern,KCRW,11/02/16 6:54,16,5.3,59,30.22,10,West,8.1,0,Mostly Cloudy,FALSE,FALSE,FALSE,FALSE,FALSE,FALSE,FALSE,FALSE,FALSE,FALSE,FALSE,FALSE,FALSE,Night,Day,Day,Day
A-2716693,2,11/02/16 7:20,11/02/16 13:20,38.33614,-81.65623,38.33667,-81.65623,0.037,Between Tennis Club Rd and Smith Rd - Accident.,201, Oakwood Rd,L,Charleston,Kanawha,WV,25314-2335,US,US/Eastern,KCRW,11/02/16 6:54,16,5.3,59,30.22,10,West,8.1,0,Mostly Cloudy,FALSE,FALSE,FALSE,FALSE,FALSE,FALSE,FALSE,FALSE,FALSE,FALSE,FALSE,FALSE,FALSE,Night,Day,Day,Day
A-2716694,2,11/02/16 7:29,11/02/16 13:29,41.0961,-81.58593,41.10186,-81.59001,0.451,At White Pond Dr/Mull Ave/Exit 132 - Accident.,,I-77 N,R,Akron,Summit,OH,44320,US,US/Eastern,KAKR,11/02/16 7:28,12,0.5,80,30.08,2,West,8.1,0,Light Snow,FALSE,FALSE,FALSE,FALSE,TRUE,FALSE,FALSE,FALSE,FALSE,FALSE,FALSE,FALSE,FALSE,Day,Day,Day,Day
A-2716695,3,11/02/16 7:45,11/02/16 13:45,41.12155,-85.18716,41.119121,-85.189639,0.212,At US-30/US-33/IN-930/Exit 109 - Accident.,,US-30 E,R,Fort Wayne,Allen,IN,46808,US,US/Eastern,KFWA,11/02/16 7:54,15.1,4.2,70,30.25,10,West,8.1,0,Mostly Cloudy,FALSE,FALSE,FALSE,FALSE,FALSE,FALSE,FALSE,FALSE,FALSE,FALSE,FALSE,FALSE,FALSE,Day,Day,Day,Day
A-2716696,3,11/02/16 7:45,11/02/16 13:45,38.829993,-80.667067,38.806587,-80.662776,1.634,At US-19/Exit 67 - Accident.,,I-79 S,R,Burnsville,Braxton,WV,26335,US,US/Eastern,K48I,11/02/16 7:53,12,-3,73,28.83,10,W,13,0,Cloudy,FALSE,FALSE,FALSE,FALSE,FALSE,FALSE,FALSE,FALSE,FALSE,FALSE,FALSE,FALSE,FALSE,Day,Day,Day,Day
A-2716697,2,11/02/16 7:47,11/02/16 13:47,40.05642,-83.03097,40.05456,-83.03166,0.134,At Henderson Rd - Accident.,,Olentangy Fwy S,R,Columbus,Franklin,OH,43214,US,US/Eastern,KOSU,11/02/16 7:53,9,-3.2,84,30.24,10,West,8.1,,Overcast,FALSE,FALSE,FALSE,FALSE,FALSE,FALSE,FALSE,FALSE,FALSE,FALSE,FALSE,FALSE,FALSE,Day,Day,Day,Day
A-2716698,2,11/02/16 7:47,11/02/16 13:47,41.37717,-81.5139,41.36828,-81.51647,0.629,At Broadway Ave/Forbes Rd/Exit 23 - Accident.,,I-480 E,R,Bedford,Cuyahoga,OH,44146,US,US/Eastern,KBKL,11/02/16 7:53,18,-0.5,57,30.14,10,WNW,26.5,,Overcast,FALSE,FALSE,FALSE,FALSE,FALSE,FALSE,FALSE,FALSE,FALSE,FALSE,FALSE,FALSE,FALSE,Day,Day,Day,Day
A-2716699,2,11/02/16 7:58,11/02/16 13:58,39.17397,-84.49031,39.1765,-84.48757,0.228,At OH-562/Exit 7 - Accident.,,I-75 N,R,Cincinnati,Hamilton,OH,45237,US,US/Eastern,KLUK,11/02/16 7:53,15.1,9.4,68,30.31,10,WNW,3.5,,Clear,FALSE,FALSE,FALSE,FALSE,FALSE,FALSE,FALSE,FALSE,FALSE,FALSE,FALSE,FALSE,FALSE,Day,Day,Day,Day
A-2716700,2,11/02/16 8:28,11/02/16 14:28,39.75513,-84.16614,39.75424,-84.15598,0.543,At Steve Whalen Blvd - Accident.,,US-35 E,R,Dayton,Montgomery,OH,45410,US,US/Eastern,KFFO,11/02/16 8:58,9.1,-0.7,83,30.3,10,South,5.8,,Mostly Cloudy,FALSE,FALSE,FALSE,FALSE,FALSE,FALSE,FALSE,FALSE,FALSE,FALSE,FALSE,FALSE,FALSE,Day,Day,Day,Day
A-2716701,2,11/02/16 8:40,11/02/16 14:40,39.17397,-84.49031,39.1765,-84.48757,0.228,At OH-562/Exit 7 - Accident.,,I-75 N,R,Cincinnati,Hamilton,OH,45237,US,US/Eastern,KLUK,11/02/16 8:53,17.1,10,62,30.33,10,WNW,4.6,,Clear,FALSE,FALSE,FALSE,FALSE,FALSE,FALSE,FALSE,FALSE,FALSE,FALSE,FALSE,FALSE,FALSE,Day,Day,Day,Day
A-2716702,2,11/02/16 8:42,11/02/16 14:42,41.12624,-81.65299,41.11921,-81.63658,0.983,Between OH-21/Exit 136 and Cleveland Massillon Rd/Exit 135 - Accident.,,I-77 S,R,Akron,Summit,OH,44321,US,US/Eastern,KAKR,11/02/16 8:54,12,-4,77,30.17,9,West,15,0,,FALSE,FALSE,FALSE,FALSE,FALSE,FALSE,FALSE,FALSE,FALSE,FALSE,FALSE,FALSE,FALSE,Day,Day,Day,Day
A-2716703,2,11/02/16 8:47,11/02/16 14:47,38.33667,-81.65623,38.33667,-81.65623,0,At Smith Rd - Accident.,207, Oakwood Rd,L,Charleston,Kanawha,WV,25314-2347,US,US/Eastern,KCRW,11/02/16 8:54,17.1,8.7,56,30.28,10,West,5.8,,Scattered Clouds,FALSE,FALSE,FALSE,FALSE,FALSE,FALSE,FALSE,FALSE,FALSE,FALSE,FALSE,FALSE,FALSE,Day,Day,Day,Day
A-2716704,2,11/02/16 8:50,11/02/16 14:50,41.10389,-81.5,41.10123,-81.50007,0.184,At OH-261/E Tallmadge Ave - Accident.,,OH-59 S,R,Akron,Summit,OH,44310,US,US/Eastern,KAKR,11/02/16 8:54,12,-4,77,30.17,9,West,15,0,,FALSE,FALSE,FALSE,FALSE,FALSE,FALSE,FALSE,FALSE,FALSE,FALSE,FALSE,FALSE,FALSE,Day,Day,Day,Day
A-2716705,2,11/02/16 9:06,11/02/16 15:06,39.16417,-84.45275,39.16359,-84.44952,0.178,At US-22/OH-3/OH-561 - Accident.,,Norwood Lateral Expy E,R,Cincinnati,Hamilton,OH,45212,US,US/Eastern,KLUK,11/02/16 8:53,17.1,10,62,30.33,10,WNW,4.6,,Clear,FALSE,FALSE,FALSE,FALSE,FALSE,FALSE,FALSE,FALSE,FALSE,FALSE,FALSE,FALSE,FALSE,Day,Day,Day,Day
A-2716706,2,11/02/16 9:37,11/02/16 15:37,40.11184,-83.00883,40.1123,-83.03781,1.532,Between US-23/Exit 23 and OH-315/Olentangy Riv Rd/Exit 22 - Accident.,,Outerbelt W,R,Columbus,Franklin,OH,43235,US,US/Eastern,KOSU,11/02/16 9:53,15.1,7.7,77,30.28,10,West,4.6,,Overcast,FALSE,FALSE,FALSE,FALSE,FALSE,FALSE,FALSE,FALSE,FALSE,FALSE,FALSE,FALSE,FALSE,Day,Day,Day,Day
A-2716707,2,11/02/16 9:41,11/02/16 15:41,38.31922,-85.75302,38.32946,-85.75373,0.709,At US-31/IN-131/Exit 4 - Accident.,,I-65 N,R,Clarksville,Clark,IN,47129,US,US/Eastern,KLOU,11/02/16 9:53,23,,55,30.34,10,Calm,,,Clear,FALSE,FALSE,FALSE,FALSE,TRUE,FALSE,FALSE,FALSE,FALSE,FALSE,FALSE,TRUE,FALSE,Day,Day,Day,Day
A-2716708,3,11/02/16 10:33,11/02/16 16:33,39.09881,-84.50801,39.10414,-84.50438,0.417,At US-50/Exit 1 - Accident.,,I-71 N,R,Cincinnati,Hamilton,OH,45202,US,US/Eastern,KLUK,11/02/16 10:53,19,13.9,62,30.35,10,SSE,3.5,,Scattered Clouds,FALSE,FALSE,FALSE,FALSE,TRUE,FALSE,FALSE,FALSE,FALSE,FALSE,TRUE,FALSE,FALSE,Day,Day,Day,Day
A-2716709,3,11/02/16 10:33,11/02/16 16:33,41.473859,-81.708409,41.47391,-81.703564,0.251,Between 41st St/Exit 169 and I-71/I-90/OH-176/Exit 170 - Accident.,,I-90 E,R,Cleveland,Cuyahoga,OH,44113,US,US/Eastern,KBKL,11/02/16 10:53,19,2,62,30.2,9,WNW,23,,Overcast,FALSE,FALSE,FALSE,FALSE,FALSE,FALSE,FALSE,FALSE,FALSE,FALSE,FALSE,FALSE,FALSE,Day,Day,Day,Day
A-2716710,2,11/02/16 11:42,11/02/16 17:42,41.039988,-81.565332,41.039994,-81.565332,0,At Exit 18 - Accident.,,I-76 W,R,Akron,Summit,OH,44314,US,US/Eastern,KAKR,11/02/16 11:54,16,1.7,74,30.22,2,West,13.8,0,Light Snow,FALSE,FALSE,FALSE,FALSE,FALSE,FALSE,FALSE,FALSE,FALSE,FALSE,FALSE,FALSE,FALSE,Day,Day,Day,Day
A-2716711,3,11/02/16 12:02,11/02/16 18:02,41.73565,-84.99082,41.73569,-84.99399,0.163,At I-69/US-27/Exit 144 - Accident.,,I-80 W,R,Fremont,Steuben,IN,46737,US,US/Eastern,KANQ,11/02/16 11:55,17.6,9.3,63,30.23,10,NW,5.8,,Mostly Cloudy,FALSE,FALSE,FALSE,FALSE,FALSE,FALSE,FALSE,FALSE,FALSE,FALSE,FALSE,FALSE,FALSE,Day,Day,Day,Day
A-2716712,2,11/02/16 11:58,11/02/16 17:58,39.26566,-84.43965,39.27422,-84.44023,0.592,At Sharon Rd/Exit 15 - Accident.,,I-75 N,R,Cincinnati,Hamilton,OH,45241,US,US/Eastern,KHAO,11/02/16 11:53,21,13.4,48,30.35,10,West,5.8,,Clear,FALSE,FALSE,FALSE,FALSE,FALSE,FALSE,FALSE,FALSE,FALSE,FALSE,FALSE,FALSE,FALSE,Day,Day,Day,Day
A-2716713,2,11/02/16 12:12,11/02/16 18:12,41.46981,-81.81104,41.4716,-81.81916,0.438,At McKinley Ave/Exit 164 - Accident.,,Northwest Fwy W,R,Lakewood,Cuyahoga,OH,44107,US,US/Eastern,KCLE,11/02/16 11:51,16,2.3,71,30.26,2,WNW,12.7,0,Light Snow,FALSE,FALSE,FALSE,FALSE,FALSE,FALSE,FALSE,FALSE,FALSE,FALSE,FALSE,FALSE,FALSE,Day,Day,Day,Day
A-2716714,2,11/02/16 13:25,11/02/16 19:25,41.25666,-81.63157,41.25666,-81.63157,0,At OH-21/Brecksville Rd/Exit 145 - Accident.,,OH-21 N,R,Richfield,Summit,OH,44286,US,US/Eastern,KCLE,11/02/16 13:31,17.1,5,71,30.22,2,West,10.4,0,Light Snow,FALSE,FALSE,FALSE,FALSE,FALSE,FALSE,FALSE,FALSE,FALSE,FALSE,FALSE,FALSE,FALSE,Day,Day,Day,Day
A-2716715,2,11/02/16 13:30,11/02/16 19:30,40.58919,-80.09885,40.58919,-80.09885,0,At I-279/Exit 72 - Accident.,2400, Rochester Rd,L,Sewickley,Allegheny,PA,15143-8606,US,US/Eastern,KPIT,11/02/16 13:51,16,-1.7,54,30.21,10,West,21.9,0,Mostly Cloudy,FALSE,FALSE,FALSE,FALSE,FALSE,FALSE,FALSE,FALSE,FALSE,FALSE,FALSE,FALSE,FALSE,Day,Day,Day,Day
A-2716716,2,11/02/16 13:56,11/02/16 19:56,41.06356,-81.49078,41.06203,-81.504711,0.733,Between Arlington St and I-77/OH-8/Exit 23 - Accident.,332, S Arlington St,R,Akron,Summit,OH,44306-1332,US,US/Eastern,KAKR,11/02/16 13:54,19,3.2,52,30.21,10,WNW,19.6,,Overcast,FALSE,FALSE,FALSE,FALSE,FALSE,FALSE,FALSE,FALSE,FALSE,FALSE,FALSE,TRUE,FALSE,Day,Day,Day,Day
A-2716717,2,11/02/16 13:56,11/02/16 19:56,41.06218,-81.50595,41.06247,-81.51023,0.224,At I-77/OH-8/Exit 23 - Accident.,,I-76 W,R,Akron,Summit,OH,44311,US,US/Eastern,KAKR,11/02/16 13:54,19,3.2,52,30.21,10,WNW,19.6,,Overcast,FALSE,FALSE,FALSE,FALSE,FALSE,FALSE,FALSE,FALSE,FALSE,FALSE,FALSE,FALSE,FALSE,Day,Day,Day,Day
A-2716718,2,11/02/16 14:53,11/02/16 20:53,39.17736,-84.4873,39.1737,-84.49092,0.319,At OH-562/Exit 7 - Accident.,,I-75 S,R,Cincinnati,Hamilton,OH,45237,US,US/Eastern,KLUK,11/02/16 14:53,25,18.1,46,30.32,10,WNW,5.8,0,Partly Cloudy,FALSE,FALSE,FALSE,FALSE,FALSE,FALSE,FALSE,FALSE,FALSE,FALSE,FALSE,FALSE,FALSE,Day,Day,Day,Day
A-2716719,2,11/02/16 15:08,11/02/16 21:08,38.33956,-81.60992,38.34442,-81.61366,0.392,At US-114/Greenbrier St/Exit 99 - Accident.,,I-77 N,R,Charleston,Kanawha,WV,25311,US,US/Eastern,KCRW,11/02/16 14:54,23,15.8,42,30.26,10,West,5.8,,Mostly Cloudy,FALSE,FALSE,FALSE,FALSE,TRUE,FALSE,FALSE,FALSE,FALSE,FALSE,FALSE,FALSE,FALSE,Day,Day,Day,Day
A-2716720,2,11/02/16 15:34,11/02/16 21:34,41.47889,-81.6934,41.4743,-81.69724,0.374,At I-71/I-90/OH-176/Exit 170 - Accident. in the right lane.,,I-71 S,R,Cleveland,Cuyahoga,OH,44113,US,US/Eastern,KBKL,11/02/16 15:53,19.9,3.2,60,30.26,9,NW,23,0,Light Snow,FALSE,FALSE,FALSE,FALSE,FALSE,FALSE,FALSE,FALSE,FALSE,FALSE,FALSE,FALSE,FALSE,Day,Day,Day,Day
A-2716721,2,11/02/16 16:56,11/02/16 22:56,40.58919,-80.09885,40.58919,-80.09885,0,At I-279/Exit 72 - Accident.,2400, Rochester Rd,L,Sewickley,Allegheny,PA,15143-8606,US,US/Eastern,KPIT,11/02/16 16:51,17.1,1.5,50,30.27,10,West,17.3,0,Mostly Cloudy,FALSE,FALSE,FALSE,FALSE,FALSE,FALSE,FALSE,FALSE,FALSE,FALSE,FALSE,FALSE,FALSE,Day,Day,Day,Day
A-2716722,2,11/02/16 17:02,11/02/16 23:02,41.41119,-81.64414,41.41367,-81.64345,0.175,Ramp to Exit 155 - Accident.,,I-77 N,R,Independence,Cuyahoga,OH,44131,US,US/Eastern,KBKL,11/02/16 16:53,19.9,6.2,60,30.27,9,WNW,15,0,Light Snow,FALSE,FALSE,FALSE,FALSE,FALSE,FALSE,FALSE,FALSE,FALSE,FALSE,FALSE,FALSE,FALSE,Day,Day,Day,Day
A-2716723,2,11/02/16 17:15,11/02/16 23:15,39.24907,-84.44562,39.25414,-84.44331,0.371,At OH-126/Exit 14 - Accident. in the middle lane.,,I-75 N,R,Cincinnati,Hamilton,OH,45215,US,US/Eastern,KLUK,11/02/16 16:53,25,18.1,41,30.35,10,WNW,5.8,,Clear,FALSE,FALSE,FALSE,FALSE,FALSE,FALSE,FALSE,FALSE,FALSE,FALSE,FALSE,FALSE,FALSE,Day,Day,Day,Day
A-2716724,2,11/02/16 17:15,11/02/16 23:15,39.28775,-84.40073,39.29005,-84.39123,0.532,At US-42/Exit 46 - Accident. in the middle lane.,,I-275 E,R,Cincinnati,Hamilton,OH,45241,US,US/Eastern,KHAO,11/02/16 16:53,25,19.3,41,30.35,10,NW,4.6,,Scattered Clouds,FALSE,FALSE,FALSE,FALSE,FALSE,FALSE,FALSE,FALSE,FALSE,FALSE,FALSE,FALSE,FALSE,Day,Day,Day,Day
A-2716725,2,11/02/16 17:16,11/02/16 23:16,41.47379,-81.89631,41.46866,-81.95449,3.033,Between OH-252/Columbia Rd/Exit 159 and Crocker Rd/Exit 156 - Accident.,,Northwest Fwy W,R,Westlake,Cuyahoga,OH,44145,US,US/Eastern,KCLE,11/02/16 17:22,18,7.7,65,30.27,2.5,WNW,8.1,0,Light Snow,FALSE,FALSE,FALSE,FALSE,FALSE,FALSE,FALSE,FALSE,FALSE,FALSE,FALSE,FALSE,FALSE,Day,Day,Day,Day
A-2716726,2,11/02/16 17:16,11/02/16 23:16,41.54941,-81.60676,41.5525,-81.60025,0.399,At Eddy Rd/Exit 178 - Accident. in the right lane.,,OH-283 W,R,Cleveland,Cuyahoga,OH,44108,US,US/Eastern,KBKL,11/02/16 16:53,19.9,6.2,60,30.27,9,WNW,15,0,Light Snow,FALSE,FALSE,FALSE,FALSE,FALSE,FALSE,FALSE,FALSE,FALSE,FALSE,FALSE,FALSE,FALSE,Day,Day,Day,Day
A-2716727,2,11/02/16 18:01,12/02/16 0:01,39.03347,-84.603,39.01946,-84.62035,1.343,At KY-236/Exit 184 - Accident. in the left lane.,,I-75 S,R,Erlanger,Kenton,KY,41018,US,US/Eastern,KCVG,11/02/16 17:52,24.1,,42,30.32,10,Calm,,,Scattered Clouds,FALSE,FALSE,FALSE,FALSE,FALSE,FALSE,FALSE,FALSE,FALSE,FALSE,FALSE,FALSE,FALSE,Day,Day,Day,Day
A-2716728,2,11/02/16 18:34,12/02/16 0:34,39.74903,-84.20106,39.74733,-84.21301,0.646,At I-75 - Accident. in the middle lane.,,US-35 W,R,Dayton,Montgomery,OH,45417,US,US/Eastern,KDAY,11/02/16 18:56,18,12.7,65,30.35,10,North,3.5,,Mostly Cloudy,FALSE,FALSE,FALSE,FALSE,TRUE,FALSE,FALSE,FALSE,FALSE,FALSE,FALSE,FALSE,FALSE,Night,Day,Day,Day
A-2716729,2,11/02/16 18:33,12/02/16 0:33,39.89473,-83.044,39.89642,-83.04687,0.192,Ramp to Exit 101 - Accident. in the left lane.,,Outerbelt E,R,Grove City,Franklin,OH,43123,US,US/Eastern,KTZR,11/02/16 18:35,16.5,9.4,70,30.29,10,WSW,4.6,,Mostly Cloudy,FALSE,FALSE,FALSE,FALSE,FALSE,FALSE,FALSE,FALSE,FALSE,FALSE,FALSE,FALSE,FALSE,Night,Night,Day,Day
A-2716730,2,11/02/16 19:11,12/02/16 1:11,39.19641,-84.47331,39.19334,-84.47698,0.289,At OH-4/Paddock Rd/Exit 9 - Accident. in the right lane.,,I-75 N,R,Cincinnati,Hamilton,OH,45237,US,US/Eastern,KLUK,11/02/16 18:53,21,14.6,48,30.37,10,North,4.6,,Clear,FALSE,FALSE,FALSE,FALSE,TRUE,FALSE,FALSE,FALSE,FALSE,FALSE,FALSE,FALSE,FALSE,Night,Night,Night,Day
A-2716731,2,11/02/16 19:12,12/02/16 1:12,39.22461,-84.45364,39.22518,-84.45309,0.049,At Davis St/Wyoming Ave/Exit 12 - Accident. in the right lane.,,I-75 S,R,Cincinnati,Hamilton,OH,45215,US,US/Eastern,KLUK,11/02/16 18:53,21,14.6,48,30.37,10,North,4.6,,Clear,FALSE,FALSE,FALSE,FALSE,FALSE,FALSE,FALSE,FALSE,FALSE,FALSE,FALSE,FALSE,FALSE,Night,Night,Night,Day
A-2716732,2,11/02/16 19:16,12/02/16 1:16,39.15306,-84.44283,39.15524,-84.44117,0.175,At OH-561/Exit 6 - Accident. in the right lane.,,I-71 N,R,Cincinnati,Hamilton,OH,45209,US,US/Eastern,KLUK,11/02/16 18:53,21,14.6,48,30.37,10,North,4.6,,Clear,FALSE,FALSE,FALSE,FALSE,FALSE,FALSE,FALSE,FALSE,FALSE,FALSE,FALSE,FALSE,FALSE,Night,Night,Night,Day
A-2716733,2,11/02/16 19:21,12/02/16 1:21,39.97262,-82.98368,39.97033,-82.98413,0.16,At I-670/Spring St/Long St/Exit 109A - Accident. in the right lane.,,North Fwy S,R,Columbus,Franklin,OH,43203,US,US/Eastern,KCMH,11/02/16 19:51,17.1,11.7,62,30.35,10,SW,3.5,0,Mostly Cloudy,FALSE,FALSE,FALSE,FALSE,FALSE,FALSE,FALSE,FALSE,FALSE,FALSE,FALSE,FALSE,FALSE,Night,Night,Night,Day
A-2716734,4,11/02/16 19:57,12/02/16 1:57,40.535447,-80.03596,40.529455,-80.03507,0.417,Closed at Perry Ln - Road closed due to accident.,948, Perry Hwy,R,Pittsburgh,Allegheny,PA,15237-2107,US,US/Eastern,KPIT,11/02/16 19:51,12.9,3.8,51,30.33,10,West,5.8,,Scattered Clouds,FALSE,FALSE,TRUE,FALSE,FALSE,FALSE,FALSE,FALSE,FALSE,FALSE,FALSE,FALSE,FALSE,Night,Night,Night,Night
A-2716735,4,11/02/16 19:57,12/02/16 1:57,40.529455,-80.03507,40.535447,-80.03596,0.417,Closed at Schars Ln - Road closed due to accident.,770, Perry Hwy,R,Pittsburgh,Allegheny,PA,15229-1160,US,US/Eastern,KPIT,11/02/16 19:51,12.9,3.8,51,30.33,10,West,5.8,,Scattered Clouds,FALSE,FALSE,FALSE,FALSE,FALSE,FALSE,FALSE,FALSE,FALSE,FALSE,FALSE,FALSE,FALSE,Night,Night,Night,Night
A-2716736,2,11/02/16 19:58,12/02/16 1:58,41.49647,-81.67733,41.49495,-81.68196,0.262,At I-77/19th St/Exit 172 - Accident. in the right lane.,,I-90 W,R,Cleveland,Cuyahoga,OH,44115,US,US/Eastern,KBKL,11/02/16 19:53,19,8.2,68,30.3,9,SSW,9.2,0,Light Snow,FALSE,FALSE,FALSE,FALSE,FALSE,FALSE,FALSE,FALSE,FALSE,FALSE,FALSE,FALSE,FALSE,Night,Night,Night,Night
A-2716737,2,11/02/16 20:09,12/02/16 2:09,41.0634,-81.49079,41.0634,-81.49079,0,At Arlington St - Accident. in the left lane.,,S Arlington St,R,Akron,Summit,OH,44306,US,US/Eastern,KAKR,11/02/16 19:54,9,2.4,73,30.31,10,SSW,3.5,,Clear,FALSE,FALSE,FALSE,FALSE,FALSE,FALSE,FALSE,FALSE,FALSE,FALSE,FALSE,FALSE,FALSE,Night,Night,Night,Night
A-2716738,2,11/02/16 20:58,12/02/16 2:58,39.74284,-84.20479,39.75052,-84.20541,0.532,At US-35/Albany St/Exit 52 - Accident. in the left lane.,,I-75 N,R,Dayton,Montgomery,OH,45417,US,US/Eastern,KDAY,11/02/16 20:56,17.1,,68,30.35,10,Calm,,,Scattered Clouds,FALSE,FALSE,FALSE,FALSE,TRUE,FALSE,FALSE,FALSE,FALSE,FALSE,FALSE,FALSE,FALSE,Night,Night,Night,Night
A-2716739,2,12/02/16 10:07,12/02/16 19:07,41.46822,-81.9476,41.46866,-81.95449,0.358,At Crocker Rd/Exit 156 - Accident.,,Northwest Fwy W,R,Westlake,Cuyahoga,OH,44145,US,US/Eastern,KCLE,12/02/16 9:51,17.1,5,65,30.17,10,SSW,10.4,,Overcast,FALSE,FALSE,FALSE,FALSE,FALSE,FALSE,FALSE,FALSE,FALSE,FALSE,FALSE,FALSE,FALSE,Day,Day,Day,Day
A-2716740,4,12/02/16 16:15,12/02/16 22:15,41.92479,-83.36026,41.96429,-83.35018,2.778,Closed between M-50/Dixie Hwy/Exit 15 and Nadeau Rd/Exit 18 - Road closed due to accident.,,Detroit Toledo Expy N,R,Monroe,Monroe,MI,48162,US,US/Eastern,KTTF,12/02/16 16:15,23,9.2,66,29.96,10,WNW,17.3,,Mostly Cloudy,FALSE,FALSE,FALSE,FALSE,FALSE,FALSE,FALSE,FALSE,FALSE,FALSE,FALSE,FALSE,FALSE,Day,Day,Day,Day
A-2716741,4,12/02/16 19:29,13/02/16 1:29,41.184738,-80.432713,41.19189,-80.24637,9.702,Closed at US-19/Exit 15 - Road closed due to accident.,,I-80 E,R,West Middlesex,Mercer,PA,16159,US,US/Eastern,KUCP,12/02/16 19:51,17.6,9.3,86,29.94,9,SW,5.8,0,Light Snow,FALSE,FALSE,FALSE,FALSE,FALSE,FALSE,FALSE,FALSE,FALSE,FALSE,FALSE,FALSE,FALSE,Night,Night,Night,Night
A-2716742,4,12/02/16 22:22,13/02/16 4:22,40.27317,-85.5577,40.42642,-85.54938,10.598,Closed between US-35/IN-28/Exit 45 and IN-26/Exit 55 - Road closed due to accident.,,I-69 N,R,Gaston,Delaware,IN,47342,US,US/Eastern,KMIE,12/02/16 21:53,16,2.9,59,30.28,10,NW,11.5,,Scattered Clouds,FALSE,FALSE,FALSE,FALSE,FALSE,FALSE,FALSE,FALSE,FALSE,FALSE,FALSE,FALSE,FALSE,Night,Night,Night,Night
A-2716743,4,12/02/16 22:26,13/02/16 4:26,39.98264,-85.14302,39.97527,-85.14018,0.531,Closed between US-35 and Charles Rd - Road closed due to accident.,10603, Purple Heart Memorial Hwy,R,Economy,Wayne,IN,47339,US,US/Eastern,KMIE,12/02/16 22:53,16,1.7,59,30.31,10,NW,13.8,,Partly Cloudy,FALSE,FALSE,FALSE,FALSE,FALSE,FALSE,FALSE,FALSE,FALSE,FALSE,FALSE,FALSE,FALSE,Night,Night,Night,Night
A-2716744,4,12/02/16 22:28,13/02/16 4:28,40.27317,-85.5577,40.42642,-85.54938,10.598,Closed between US-35/IN-28/Exit 45 and IN-26/Exit 55 - Road closed due to accident.,,I-69 N,R,Gaston,Delaware,IN,47342,US,US/Eastern,KMIE,12/02/16 22:53,16,1.7,59,30.31,10,NW,13.8,,Partly Cloudy,FALSE,FALSE,FALSE,FALSE,FALSE,FALSE,FALSE,FALSE,FALSE,FALSE,FALSE,FALSE,FALSE,Night,Night,Night,Night
A-2716745,4,12/02/16 22:28,13/02/16 4:28,40.42667,-85.54968,40.27678,-85.55806,10.366,Closed between IN-26/Exit 55 and US-35/IN-28/Exit 45 - Road closed due to accident.,,I-69 S,R,Fairmount,Grant,IN,46928,US,US/Eastern,KMZZ,12/02/16 22:35,15.3,0.2,57,30.29,10,NW,15,,Scattered Clouds,FALSE,FALSE,FALSE,FALSE,FALSE,FALSE,FALSE,FALSE,FALSE,FALSE,FALSE,FALSE,FALSE,Night,Night,Night,Night
A-2716746,4,12/02/16 22:26,13/02/16 4:26,39.97527,-85.14018,39.98264,-85.14302,0.531,Closed between Charles Rd and US-35 - Road closed due to accident.,9609, N State Road 1,R,Hagerstown,Wayne,IN,47346-9786,US,US/Eastern,KMIE,12/02/16 22:53,16,1.7,59,30.31,10,NW,13.8,,Partly Cloudy,FALSE,FALSE,FALSE,FALSE,FALSE,FALSE,FALSE,FALSE,FALSE,FALSE,FALSE,FALSE,FALSE,Night,Night,Night,Night
A-2716747,2,12/02/16 23:04,13/02/16 5:04,39.09889,-84.52118,41.16722,-83.6497,150.138,Between I-71/US-50/Exit 1 and 8 Mile Rd/Exit 59 - Accident. in the left lane.,,I-75 N,R,Cincinnati,Hamilton,OH,45202,US,US/Eastern,KLUK,12/02/16 23:14,19.9,6.7,71,30.32,2.5,NNW,13.8,0,Light Snow,FALSE,FALSE,FALSE,FALSE,FALSE,FALSE,FALSE,FALSE,FALSE,FALSE,FALSE,FALSE,FALSE,Night,Night,Night,Night
A-2716748,2,12/02/16 23:04,13/02/16 5:04,38.88012,-84.62527,39.09875,-84.52119,16.107,Between I-71/Exit 173 and I-71/US-50/Exit 1 - Accident. in the left lane.,,I-75 N,R,Walton,Boone,KY,41094,US,US/Eastern,KCVG,12/02/16 22:52,19.9,3.9,68,30.29,10,NW,20.7,0,Overcast,FALSE,FALSE,FALSE,FALSE,FALSE,FALSE,FALSE,FALSE,FALSE,FALSE,FALSE,FALSE,FALSE,Night,Night,Night,Night
A-2716749,2,12/02/16 23:04,13/02/16 5:04,38.79256,-84.60423,38.879317,-84.62519,6.1,Between KY-80/Exit 41 and I-71/Exit 173 - Accident. in the left lane.,,I-75 N,R,Crittenden,Kenton,KY,41030,US,US/Eastern,KCVG,12/02/16 22:52,19.9,3.9,68,30.29,10,NW,20.7,0,Overcast,FALSE,FALSE,FALSE,FALSE,FALSE,FALSE,FALSE,FALSE,FALSE,FALSE,FALSE,FALSE,FALSE,Night,Night,Night,Night
A-2716750,4,13/02/16 4:56,13/02/16 10:56,39.74284,-84.20479,39.77093,-84.1928,2.043,Closed between US-35/Albany St/Exit 52 and OH-48/Grand Ave/Exit 54 - Road closed due to accident.,,I-75 N,R,Dayton,Montgomery,OH,45417,US,US/Eastern,KDAY,13/02/16 4:56,10,-6.5,67,30.44,10,NNW,15,0.01,Overcast,FALSE,FALSE,FALSE,FALSE,TRUE,FALSE,FALSE,FALSE,FALSE,FALSE,FALSE,FALSE,FALSE,Night,Night,Night,Night
A-2716751,3,13/02/16 7:14,13/02/16 13:14,40.484222,-80.137554,40.503456,-80.139196,1.332,At Coraopolis Rd - Accident.,5, Forest Grove Rd,L,Coraopolis,Allegheny,PA,15108-3485,US,US/Eastern,KPIT,13/02/16 6:51,6.1,-12.2,63,30.32,10,WNW,16.1,0,Partly Cloudy,FALSE,FALSE,FALSE,FALSE,FALSE,FALSE,FALSE,FALSE,FALSE,FALSE,FALSE,FALSE,FALSE,Night,Day,Day,Day
A-2716752,3,13/02/16 9:13,13/02/16 15:13,41.20104,-80.06859,41.19661,-80.16752,5.152,Between PA-173/Exit 24 and I-79/Exit 19 - Accident.,,I-80 W,R,Grove City,Mercer,PA,16127,US,US/Eastern,KUCP,13/02/16 8:56,7,-7.5,73,30.41,10,WNW,10.4,,Scattered Clouds,FALSE,FALSE,FALSE,FALSE,TRUE,FALSE,FALSE,FALSE,FALSE,FALSE,FALSE,FALSE,FALSE,Day,Day,Day,Day
A-2716753,4,13/02/16 16:00,13/02/16 22:00,39.05528,-84.39072,39.058008,-84.35856,1.736,Closed between US-52/Exit 71 and Five Mile Rd/Exit 69 - Road closed due to accident.,,I-275 E,R,Cincinnati,Hamilton,OH,45230,US,US/Eastern,KLUK,13/02/16 15:53,19.9,8.6,42,30.57,10,North,10.4,,Clear,FALSE,FALSE,FALSE,FALSE,FALSE,FALSE,FALSE,FALSE,FALSE,FALSE,FALSE,FALSE,FALSE,Day,Day,Day,Day
A-2716754,4,13/02/16 18:06,14/02/16 0:06,41.623325,-83.692226,41.669943,-83.693369,3.222,Closed at US-20/OH-120/Central/Exit 13 - Road closed due to accident.,,I-475 N,R,Holland,Lucas,OH,43528,US,US/Eastern,KTOL,13/02/16 17:52,15.1,4.2,68,30.5,10,West,8.1,0,Overcast,FALSE,FALSE,FALSE,FALSE,FALSE,FALSE,FALSE,FALSE,FALSE,FALSE,FALSE,FALSE,FALSE,Night,Day,Day,Day
A-2716755,3,13/02/16 18:48,14/02/16 0:48,40.53024,-80.00957,40.53024,-80.00957,0,At Siebert Rd - Accident.,4875, McKnight Rd,L,Pittsburgh,Allegheny,PA,15237-3405,US,US/Eastern,KPIT,13/02/16 18:51,7,-7.5,67,30.5,10,WNW,10.4,,Scattered Clouds,FALSE,FALSE,TRUE,FALSE,FALSE,FALSE,FALSE,FALSE,TRUE,FALSE,FALSE,TRUE,FALSE,Night,Night,Day,Day
A-2716756,3,13/02/16 18:48,14/02/16 0:48,40.53024,-80.00957,40.53024,-80.00957,0,At Siebert Rd - Accident.,4875, McKnight Rd,L,Pittsburgh,Allegheny,PA,15237-3405,US,US/Eastern,KPIT,13/02/16 18:51,7,-7.5,67,30.5,10,WNW,10.4,,Scattered Clouds,FALSE,FALSE,TRUE,FALSE,FALSE,FALSE,FALSE,FALSE,TRUE,FALSE,FALSE,TRUE,FALSE,Night,Night,Day,Day
A-2716757,4,13/02/16 22:20,14/02/16 4:20,40.06527,-82.99591,40.04638,-82.99752,1.308,Closed between Morse Rd/Exit 116 and Cooke Rd/Exit 115 - Road closed due to accident.,,North Fwy S,R,Columbus,Franklin,OH,43229,US,US/Eastern,KOSU,13/02/16 21:53,8.1,-4.3,70,30.53,10,West,8.1,,Clear,FALSE,FALSE,FALSE,FALSE,TRUE,FALSE,FALSE,FALSE,FALSE,FALSE,FALSE,FALSE,FALSE,Night,Night,Night,Night
A-2716758,4,14/02/16 3:58,14/02/16 9:58,40.43954,-80.00971,40.4342,-79.99635,0.794,Closed between I-279/Exit 70C and Grant St/Exit 71A - Road closed due to accident.,,Parkway East,R,Pittsburgh,Allegheny,PA,15222,US,US/Eastern,KAGC,14/02/16 3:53,5,-8.1,80,30.5,10,West,8.1,,Clear,FALSE,FALSE,FALSE,FALSE,TRUE,FALSE,FALSE,FALSE,FALSE,TRUE,FALSE,FALSE,FALSE,Night,Night,Night,Night
A-2716759,4,14/02/16 5:26,14/02/16 11:26,41.422004,-81.730092,41.4258,-81.75658,1.397,Closed between Ridge Rd/Exit 15 and Tiedeman Rd/Exit 13 - Road closed due to accident.,,Outerbelt South Fwy W,R,Cleveland,Cuyahoga,OH,44129,US,US/Eastern,KCLE,14/02/16 5:51,3,-4.4,84,30.55,10,SSW,3.5,0,Scattered Clouds,FALSE,FALSE,FALSE,FALSE,FALSE,FALSE,FALSE,FALSE,FALSE,FALSE,FALSE,FALSE,FALSE,Night,Night,Night,Night
A-2716760,4,14/02/16 16:30,14/02/16 22:30,39.3638,-85.51659,39.45279,-85.628,8.554,Closed between US-421/Exit 132 and US-421/Exit 123 - Road closed due to accident.,,I-74 W,R,Greensburg,Decatur,IN,47240,US,US/Eastern,KBAK,14/02/16 16:50,17.6,5.7,100,30.15,0.8,ESE,10.4,,Snow,FALSE,FALSE,FALSE,FALSE,FALSE,FALSE,FALSE,FALSE,FALSE,FALSE,FALSE,FALSE,FALSE,Day,Day,Day,Day
A-2716761,4,14/02/16 16:38,14/02/16 22:38,39.82083,-85.7749,39.84037,-85.55421,11.787,Closed between IN-9/Exit 104 and IN-109/Exit 115 - Road closed due to accident.,,I-70 E,R,Greenfield,Hancock,IN,46140,US,US/Eastern,KMQJ,14/02/16 16:35,17.6,5.7,86,30.16,1,SE,10.4,,Overcast,FALSE,FALSE,FALSE,FALSE,FALSE,FALSE,FALSE,FALSE,FALSE,FALSE,FALSE,FALSE,FALSE,Day,Day,Day,Day
A-2716762,3,14/02/16 17:40,14/02/16 23:40,40.0366,-85.72562,40.03833,-85.71948,0.346,At IN-67/IN-9/Exit 22 - Accident.,,I-69 N,R,Anderson,Madison,IN,46013,US,US/Eastern,KAID,,,,,,,,,,,FALSE,FALSE,FALSE,FALSE,FALSE,FALSE,FALSE,FALSE,FALSE,FALSE,FALSE,FALSE,FALSE,Day,Day,Day,Day
A-2716763,4,14/02/16 18:02,15/02/16 0:02,39.855691,-84.290792,39.864781,-84.202359,4.732,Closed between Hoke Rd/Exit 26 and I-75/Exit 33 - Road closed due to accident.,,I-70 E,R,Englewood,Montgomery,OH,45322,US,US/Eastern,KDAY,14/02/16 17:56,15.1,-0.1,88,30.25,0.8,East,15,0.03,Light Snow,FALSE,FALSE,FALSE,FALSE,FALSE,FALSE,FALSE,FALSE,FALSE,FALSE,FALSE,FALSE,FALSE,Day,Day,Day,Day
A-2716764,3,14/02/16 18:03,15/02/16 0:03,40.049152,-85.682047,40.03744,-85.72343,2.334,At IN-67/IN-9/Exit 22 - Accident.,,IN-9 S,R,Anderson,Madison,IN,46013,US,US/Eastern,KAID,,,,,,,,,,,FALSE,FALSE,FALSE,FALSE,FALSE,FALSE,FALSE,FALSE,FALSE,FALSE,FALSE,FALSE,FALSE,Day,Day,Day,Day
A-2716765,4,14/02/16 18:25,15/02/16 0:25,39.83939,-85.55752,39.82115,-85.77004,11.347,Closed between IN-109/Exit 115 and IN-9/Exit 104 - Road closed due to accident.,,I-70 W,R,Knightstown,Henry,IN,46148,US,US/Eastern,KMQJ,14/02/16 18:35,17.6,4.3,79,30.12,10,ESE,12.7,,Overcast,FALSE,FALSE,FALSE,FALSE,FALSE,FALSE,FALSE,FALSE,FALSE,FALSE,FALSE,FALSE,FALSE,Night,Day,Day,Day
A-2716766,4,15/02/16 2:01,15/02/16 8:01,40.13386,-80.00666,40.12519,-79.95815,2.632,Closed between PA-917/Exit 32 and PA-481/Exit 35 - Road closed due to accident.,,I-70 W,R,Bentleyville,Washington,PA,15314,US,US/Eastern,KAFJ,15/02/16 1:55,19.4,11.5,74,30.15,10,ESE,5.8,,Overcast,FALSE,FALSE,FALSE,FALSE,FALSE,FALSE,FALSE,FALSE,FALSE,FALSE,FALSE,FALSE,FALSE,Night,Night,Night,Night
A-2716767,4,15/02/16 3:06,15/02/16 9:06,40.43954,-80.00971,40.4342,-79.99635,0.794,Closed between I-279/Exit 70C and Grant St/Exit 71A - Road closed due to accident.,,Parkway East,R,Pittsburgh,Allegheny,PA,15222,US,US/Eastern,KAGC,15/02/16 2:53,21.9,11.7,63,30.21,10,SE,9.2,,Overcast,FALSE,FALSE,FALSE,FALSE,TRUE,FALSE,FALSE,FALSE,FALSE,TRUE,FALSE,FALSE,FALSE,Night,Night,Night,Night
A-2716768,4,15/02/16 4:32,15/02/16 10:32,40.13386,-80.00666,40.12519,-79.95815,2.632,Closed between PA-917/Exit 32 and PA-481/Exit 35 - Road closed due to accident.,,I-70 W,R,Bentleyville,Washington,PA,15314,US,US/Eastern,KAFJ,15/02/16 4:35,19.4,14.3,86,30.1,10,ESE,3.5,,Overcast,FALSE,FALSE,FALSE,FALSE,FALSE,FALSE,FALSE,FALSE,FALSE,FALSE,FALSE,FALSE,FALSE,Night,Night,Night,Night
A-2716769,4,15/02/16 5:10,15/02/16 11:48,40.13386,-80.00666,40.12519,-79.95815,2.632,Closed between McIlvaine Rd/Exit 31 and PA-481/Exit 35 - Road closed due to accident.,,I-70 W,R,Bentleyville,Washington,PA,15314,US,US/Eastern,KAFJ,15/02/16 5:15,21.2,14.9,80,30.09,10,SE,4.6,,Overcast,FALSE,FALSE,FALSE,FALSE,FALSE,FALSE,FALSE,FALSE,FALSE,FALSE,FALSE,FALSE,FALSE,Night,Night,Night,Night
A-2716770,2,15/02/16 5:45,15/02/16 11:45,39.97859,-82.9763,39.97418,-83.00344,1.469,Between I-71 and US-23/Third St/Fourth St/Exit 4 - Accident.,,I-670 W,R,Columbus,Franklin,OH,43203,US,US/Eastern,KCMH,15/02/16 5:51,21.9,14.5,89,30.06,5,SE,5.8,0,Light Freezing Drizzle,FALSE,FALSE,FALSE,FALSE,FALSE,FALSE,FALSE,FALSE,FALSE,FALSE,FALSE,FALSE,FALSE,Night,Night,Night,Night
A-2716771,2,15/02/16 6:15,15/02/16 12:15,39.95459,-83.04255,39.95928,-83.04736,0.412,At US-40/Broad St/Exit 97 - Accident.,,I-70 W,R,Columbus,Franklin,OH,43222,US,US/Eastern,KTZR,15/02/16 6:15,22.8,13.6,96,30.02,3,SSE,8.1,,Light Snow,FALSE,FALSE,FALSE,FALSE,FALSE,FALSE,FALSE,FALSE,FALSE,FALSE,FALSE,FALSE,FALSE,Night,Night,Night,Day
A-2716772,4,15/02/16 6:18,15/02/16 12:18,39.68291,-85.97372,39.67907,-85.96786,0.409,At Acton Rd/Exit 99 - Accident.,,US-421 S,R,Indianapolis,Marion,IN,46239,US,US/Eastern,KMQJ,15/02/16 6:14,21.2,14.9,100,29.97,1.8,South,4.6,,Overcast,FALSE,FALSE,FALSE,FALSE,TRUE,FALSE,FALSE,FALSE,FALSE,FALSE,FALSE,FALSE,FALSE,Night,Night,Night,Day
A-2716773,2,15/02/16 6:37,15/02/16 12:37,38.49304,-85.77156,38.48923,-85.77188,0.264,At Blue Lick Rd/Exit 16 - Accident.,,I-65 S,R,Memphis,Clark,IN,47143,US,US/Eastern,KLOU,15/02/16 6:53,30.9,,96,30.01,2,Calm,,,Overcast,FALSE,FALSE,FALSE,FALSE,TRUE,FALSE,FALSE,FALSE,FALSE,FALSE,FALSE,FALSE,FALSE,Night,Night,Day,Day
A-2716774,4,15/02/16 6:57,15/02/16 12:57,38.33428,-85.82177,38.33649,-85.81712,0.295,At IN-111/Grant Line Rd/Exit 3 - Accident.,,I-265 E,R,New Albany,Floyd,IN,47150,US,US/Eastern,KLOU,15/02/16 6:53,30.9,,96,30.01,2,Calm,,,Overcast,FALSE,FALSE,FALSE,FALSE,FALSE,FALSE,FALSE,FALSE,FALSE,FALSE,FALSE,FALSE,FALSE,Night,Night,Day,Day
A-2716775,2,15/02/16 7:01,15/02/16 13:01,39.99921,-83.02875,39.97825,-83.02147,1.499,Between Kinnear Rd and I-670 E - Accident.,,Olentangy Fwy N,R,Columbus,Franklin,OH,43210,US,US/Eastern,KOSU,15/02/16 6:53,24.1,15.2,91,30.06,2.5,SSE,8.1,,Overcast,FALSE,FALSE,FALSE,FALSE,FALSE,FALSE,FALSE,FALSE,FALSE,FALSE,FALSE,FALSE,FALSE,Night,Day,Day,Day
A-2716776,3,15/02/16 7:13,15/02/16 13:13,38.53844,-85.77702,38.54355,-85.7781,0.358,At IN-160/Exit 19 - Accident.,,I-65 N,R,Henryville,Clark,IN,47126,US,US/Eastern,KLOU,15/02/16 7:15,32,,92,29.99,2,Calm,,,Overcast,FALSE,FALSE,FALSE,FALSE,FALSE,FALSE,FALSE,FALSE,FALSE,FALSE,FALSE,FALSE,FALSE,Night,Day,Day,Day
A-2716777,2,15/02/16 7:14,15/02/16 13:14,38.1781,-85.71946,38.18104,-85.72116,0.223,At KY-61/Grade Lane/Exit 130 - Accident.,,Dr Martin Luther King Jr Expy N,R,Louisville,Jefferson,KY,40213,US,US/Eastern,KSDF,15/02/16 7:03,32,26.4,92,29.99,2,SE,5.8,0,Light Drizzle,FALSE,FALSE,FALSE,FALSE,FALSE,FALSE,FALSE,FALSE,FALSE,FALSE,FALSE,FALSE,FALSE,Night,Day,Day,Day
A-2716778,2,15/02/16 7:14,15/02/16 13:14,39.87433,-82.99882,39.89356,-83.04101,2.602,Between US-23/High St/Exit 52 and I-71/Exit 55 - Accident.,,Outerbelt W,R,Columbus,Franklin,OH,43207,US,US/Eastern,KLCK,15/02/16 7:15,25.2,17.3,96,30.02,1.2,South,6.9,,Overcast,FALSE,FALSE,FALSE,FALSE,FALSE,FALSE,FALSE,FALSE,FALSE,FALSE,FALSE,FALSE,FALSE,Night,Day,Day,Day
A-2716779,4,15/02/16 7:34,15/02/16 13:34,41.39546,-85.32855,41.39469,-85.28893,2.054,Closed between County Road 500 E and County Road 700 E - Road closed due to accident.,3002, N 500 E,R,Kendallville,Noble,IN,46755-9663,US,US/Eastern,KGWB,15/02/16 7:35,21.2,,86,29.96,2,Calm,,,Overcast,FALSE,FALSE,FALSE,FALSE,FALSE,FALSE,FALSE,FALSE,FALSE,FALSE,FALSE,FALSE,FALSE,Night,Day,Day,Day
A-2716780,4,15/02/16 7:34,15/02/16 13:34,41.39469,-85.28893,41.39546,-85.32855,2.054,Closed between County Road 700 E and County Road 500 E - Road closed due to accident.,2968, N 700 E,R,Avilla,Noble,IN,46710,US,US/Eastern,KGWB,15/02/16 7:35,21.2,,86,29.96,2,Calm,,,Overcast,FALSE,FALSE,FALSE,FALSE,FALSE,FALSE,FALSE,FALSE,FALSE,FALSE,FALSE,FALSE,FALSE,Night,Day,Day,Day
A-2716781,3,15/02/16 7:34,15/02/16 13:34,41.90473,-83.36986,41.90569,-83.36915,0.076,At Elm Ave/Exit 14 - Accident.,,I-75 S,R,Monroe,Monroe,MI,48162,US,US/Eastern,KTTF,15/02/16 7:33,21.2,12.6,87,30.01,10,SSE,6.9,,Overcast,FALSE,FALSE,FALSE,FALSE,TRUE,FALSE,FALSE,FALSE,FALSE,FALSE,FALSE,FALSE,FALSE,Day,Day,Day,Day
A-2716782,4,15/02/16 8:54,15/02/16 14:54,40.77137,-84.62203,40.80059,-84.61374,2.065,Closed between OH-709 and Wren Landeck Rd - Road closed due to accident.,513, W Carmean St,R,Ohio City,Van Wert,OH,45874-9037,US,US/Eastern,KAOH,15/02/16 8:53,24.1,15.2,91,30.01,5,South,8.1,,Overcast,FALSE,FALSE,FALSE,FALSE,FALSE,FALSE,FALSE,FALSE,FALSE,FALSE,FALSE,FALSE,FALSE,Day,Day,Day,Day
A-2716783,4,15/02/16 8:54,15/02/16 14:54,40.80059,-84.61374,40.77137,-84.62203,2.065,Closed between Wren Landeck Rd and OH-709 - Road closed due to accident.,10763, Wren Landeck Rd,L,Van Wert,Van Wert,OH,45891-9236,US,US/Eastern,KAOH,15/02/16 8:53,24.1,15.2,91,30.01,5,South,8.1,,Overcast,FALSE,FALSE,FALSE,FALSE,FALSE,FALSE,FALSE,FALSE,FALSE,FALSE,FALSE,FALSE,FALSE,Day,Day,Day,Day
A-2716784,2,15/02/16 10:06,15/02/16 16:06,39.87433,-82.99882,39.89356,-83.04101,2.602,Between US-23/High St/Exit 52 and I-71/Exit 55 - Accident.,,Outerbelt W,R,Columbus,Franklin,OH,43207,US,US/Eastern,KLCK,15/02/16 10:15,28.9,20.4,94,30,7,South,9.2,,Overcast,FALSE,FALSE,FALSE,FALSE,FALSE,FALSE,FALSE,FALSE,FALSE,FALSE,FALSE,FALSE,FALSE,Day,Day,Day,Day
A-2716785,4,15/02/16 10:56,15/02/16 16:56,40.78593,-84.61787,40.80059,-84.61374,1.036,Closed between Glenmore Rd and Wren Landeck Rd - Road closed due to accident.,15048, State Route 118,L,Ohio City,Van Wert,OH,45874-9630,US,US/Eastern,KAOH,15/02/16 10:53,27,17.3,92,29.99,10,SSW,10.4,,Overcast,FALSE,FALSE,FALSE,FALSE,FALSE,FALSE,FALSE,FALSE,FALSE,FALSE,FALSE,FALSE,FALSE,Day,Day,Day,Day
A-2716786,4,15/02/16 10:56,15/02/16 16:56,40.80059,-84.61374,40.78593,-84.61787,1.036,Closed between Wren Landeck Rd and Glenmore Rd - Road closed due to accident.,10763, Wren Landeck Rd,L,Van Wert,Van Wert,OH,45891-9236,US,US/Eastern,KAOH,15/02/16 10:53,27,17.3,92,29.99,10,SSW,10.4,,Overcast,FALSE,FALSE,FALSE,FALSE,FALSE,FALSE,FALSE,FALSE,FALSE,FALSE,FALSE,FALSE,FALSE,Day,Day,Day,Day
A-2716787,2,15/02/16 11:21,15/02/16 17:21,41.67487,-83.57266,41.67274,-83.57252,0.147,At I-475/Exit 204 - Accident.,,I-75 N,R,Toledo,Lucas,OH,43610,US,US/Eastern,KDUH,15/02/16 11:14,24.3,17.3,93,29.97,5,SSW,5.8,,Overcast,FALSE,FALSE,FALSE,FALSE,FALSE,FALSE,FALSE,FALSE,FALSE,FALSE,FALSE,FALSE,FALSE,Day,Day,Day,Day
A-2716788,2,15/02/16 12:26,15/02/16 18:26,41.47376,-81.86113,41.4696,-81.81106,2.608,Between OH-2/OH-254/Detroit Rd/Exit 161 and McKinley Ave/Exit 164 - Accident.,,Northwest Fwy W,R,Rocky River,Cuyahoga,OH,44116,US,US/Eastern,KCLE,15/02/16 12:51,30,20.5,82,29.99,10,South,11.5,,Overcast,FALSE,FALSE,FALSE,FALSE,FALSE,FALSE,FALSE,FALSE,FALSE,FALSE,FALSE,FALSE,FALSE,Day,Day,Day,Day
A-2716789,3,15/02/16 13:03,15/02/16 19:03,38.33465,-85.75389,38.31053,-85.75245,1.668,At US-31/IN-131/Exit 4 - Accident.,,I-65 S,R,Clarksville,Clark,IN,47129,US,US/Eastern,KLOU,15/02/16 12:53,37,33.3,93,29.94,5,South,4.6,,Overcast,FALSE,FALSE,FALSE,FALSE,TRUE,FALSE,FALSE,FALSE,FALSE,FALSE,FALSE,FALSE,FALSE,Day,Day,Day,Day
A-2716790,2,15/02/16 14:07,15/02/16 20:07,39.14014,-84.53495,39.12338,-84.53557,1.158,Between US-52/Hopple St/Exit 3 and Western Hills Viad/Exit 2 - Accident.,,I-75 S,R,Cincinnati,Hamilton,OH,45225,US,US/Eastern,KLUK,15/02/16 13:53,35.1,30.1,92,29.94,2,South,5.8,,Overcast,FALSE,FALSE,FALSE,FALSE,FALSE,FALSE,FALSE,FALSE,FALSE,FALSE,FALSE,FALSE,FALSE,Day,Day,Day,Day
A-2716791,3,15/02/16 14:48,15/02/16 20:48,41.80143,-85.34888,41.81755,-85.32291,1.74,At Burr Oak Rd - Accident.,31081, E Chicago Rd,R,Sturgis,Saint Joseph,MI,49091-9547,US,US/Eastern,KIRS,15/02/16 14:55,25.7,18,89,29.84,4,South,6.9,,Overcast,FALSE,FALSE,FALSE,FALSE,FALSE,FALSE,FALSE,FALSE,FALSE,FALSE,FALSE,FALSE,FALSE,Day,Day,Day,Day
A-2716792,3,15/02/16 14:48,15/02/16 20:48,41.81755,-85.32291,41.80143,-85.34888,1.74,At Burr Oak Rd - Accident.,32634, E Chicago Rd,L,Burr Oak,Saint Joseph,MI,49030-9604,US,US/Eastern,KIRS,15/02/16 14:55,25.7,18,89,29.84,4,South,6.9,,Overcast,FALSE,FALSE,FALSE,FALSE,FALSE,FALSE,FALSE,FALSE,FALSE,FALSE,FALSE,FALSE,FALSE,Day,Day,Day,Day
A-2716793,2,15/02/16 16:21,15/02/16 22:21,41.35761,-81.81988,41.35535,-81.81927,0.159,At US-42/Exit 234 - Accident.,,I-71 S,R,Cleveland,Cuyahoga,OH,44130,US,US/Eastern,KCLE,15/02/16 16:51,33.1,27.7,82,29.96,7,South,5.8,,Overcast,FALSE,FALSE,FALSE,FALSE,FALSE,FALSE,FALSE,FALSE,FALSE,FALSE,FALSE,FALSE,FALSE,Day,Day,Day,Day
A-2716794,2,15/02/16 16:38,15/02/16 22:38,39.34392,-84.39043,39.34107,-84.39895,0.496,At Cin-Day Rd/Exit 21 - Accident.,,I-75 S,R,West Chester,Butler,OH,45069,US,US/Eastern,KHAO,15/02/16 16:51,35.6,,87,29.86,0.8,Calm,,,Overcast,FALSE,FALSE,FALSE,FALSE,FALSE,FALSE,FALSE,FALSE,FALSE,FALSE,FALSE,FALSE,FALSE,Day,Day,Day,Day
A-2716795,2,15/02/16 19:02,16/02/16 1:02,39.816154,-83.180105,39.825024,-83.151338,1.645,At US-62/OH-3/Exit 94 - Accident.,,I-71 N,R,Orient,Franklin,OH,43146,US,US/Eastern,KTZR,15/02/16 18:55,33.1,,100,29.86,1.8,Calm,,,Overcast,FALSE,FALSE,FALSE,FALSE,FALSE,FALSE,FALSE,FALSE,FALSE,FALSE,FALSE,FALSE,FALSE,Night,Night,Day,Day
A-2716796,4,15/02/16 20:46,16/02/16 2:46,38.824929,-85.474495,38.82415,-85.63794,8.798,Closed between US-421 and IN-3 - Road closed due to accident.,4722, W State Road 250,R,Madison,Jefferson,IN,47250,US,US/Eastern,KLOU,15/02/16 20:53,37,34.5,96,29.85,1.5,NNW,3.5,0,Overcast,FALSE,FALSE,FALSE,FALSE,FALSE,FALSE,FALSE,FALSE,FALSE,FALSE,FALSE,FALSE,FALSE,Night,Night,Night,Night
A-2716797,4,15/02/16 20:46,16/02/16 2:46,38.82415,-85.63794,38.824929,-85.474495,8.798,Closed between IN-3 and US-421 - Road closed due to accident.,1410, W State Highway 250,R,Deputy,Jefferson,IN,47230-9365,US,US/Eastern,KBAK,15/02/16 20:59,32,,100,29.83,3,Calm,,,Overcast,FALSE,FALSE,FALSE,FALSE,FALSE,FALSE,FALSE,FALSE,FALSE,FALSE,FALSE,FALSE,FALSE,Night,Night,Night,Night
A-2716798,4,15/02/16 23:04,16/02/16 5:04,40.593244,-85.150017,40.600487,-85.150502,0.501,Closed between IN-18 and IN-218 - Road closed due to accident.,10233, S State Road 1,R,Keystone,Wells,IN,46759-9758,US,US/Eastern,KMZZ,15/02/16 22:55,29.8,,73,29.82,7,Calm,,,Overcast,FALSE,FALSE,FALSE,FALSE,FALSE,FALSE,FALSE,FALSE,FALSE,FALSE,FALSE,FALSE,FALSE,Night,Night,Night,Night
A-2716799,4,15/02/16 23:04,16/02/16 5:04,40.600487,-85.150502,40.593244,-85.150017,0.501,Closed between IN-218 and IN-18 - Road closed due to accident.,9797, S State Road 1,R,Keystone,Wells,IN,46759-9773,US,US/Eastern,KMZZ,15/02/16 22:55,29.8,,73,29.82,7,Calm,,,Overcast,FALSE,FALSE,FALSE,FALSE,FALSE,FALSE,FALSE,FALSE,FALSE,FALSE,FALSE,FALSE,FALSE,Night,Night,Night,Night
A-2716800,4,15/02/16 23:51,16/02/16 5:51,41.19362,-80.2374,41.18483,-80.45009,11.076,Closed between US-19/Exit 15 and I-376/PA-760/Exit 4 - Road closed due to accident.,,I-80 W,R,Mercer,Mercer,PA,16137,US,US/Eastern,KUCP,15/02/16 23:54,30.2,24.3,93,29.82,2,East,5.8,0,Light Snow,FALSE,FALSE,FALSE,FALSE,TRUE,FALSE,FALSE,FALSE,FALSE,FALSE,FALSE,FALSE,FALSE,Night,Night,Night,Night
A-2716801,4,16/02/16 0:29,16/02/16 6:29,40.55267,-85.14974,40.56744,-85.14993,1.021,Closed between IN-18 and E County Road 1200 S - Road closed due to accident.,8001, N State Road 1,R,Bryant,Jay,IN,47326-8917,US,US/Eastern,KMIE,16/02/16 0:25,30.9,26.2,85,29.78,4,NW,4.6,,Overcast,FALSE,FALSE,FALSE,FALSE,FALSE,FALSE,FALSE,FALSE,FALSE,FALSE,FALSE,FALSE,FALSE,Night,Night,Night,Night
A-2716802,4,16/02/16 0:29,16/02/16 6:29,40.56744,-85.14993,40.55267,-85.14974,1.021,Closed between E County Road 1200 S and IN-18 - Road closed due to accident.,8801, E 1200 S-90,R,Pennville,Jay,IN,47369,US,US/Eastern,KMIE,16/02/16 0:25,30.9,26.2,85,29.78,4,NW,4.6,,Overcast,FALSE,FALSE,FALSE,FALSE,FALSE,FALSE,FALSE,FALSE,FALSE,FALSE,FALSE,FALSE,FALSE,Night,Night,Night,Night
A-2716803,4,16/02/16 2:45,16/02/16 8:45,40.14212,-81.55153,40.29145,-81.55699,10.322,Closed between OH-541/CR-831/Exit 54 and US-36/Exit 65 - Road closed due to accident.,,I-77 N,R,Kimbolton,Guernsey,OH,43749,US,US/Eastern,KZZV,16/02/16 2:53,34,29.8,92,29.69,0.8,North,4.6,0.1,Light Snow,FALSE,FALSE,FALSE,FALSE,FALSE,FALSE,FALSE,FALSE,FALSE,FALSE,FALSE,FALSE,FALSE,Night,Night,Night,Night
A-2716804,2,16/02/16 4:54,16/02/16 10:54,39.94397,-82.41127,39.94348,-82.40391,0.391,At OH-13/Exit 132 - Accident.,,I-70 E,R,Thornville,Licking,OH,43076,US,US/Eastern,KVTA,16/02/16 4:54,34,28,89,29.7,2,NW,6.9,0.05,Light Snow,FALSE,FALSE,FALSE,FALSE,FALSE,FALSE,FALSE,FALSE,FALSE,FALSE,FALSE,FALSE,FALSE,Night,Night,Night,Night
A-2716805,2,16/02/16 4:55,16/02/16 10:55,39.96893,-83.11922,39.98407,-83.11864,1.047,At I-70/Exit 8 - Accident.,,Outerbelt N,R,Columbus,Franklin,OH,43228,US,US/Eastern,KTZR,16/02/16 4:55,32.2,26.7,100,29.71,3,NW,5.8,,Light Snow,FALSE,FALSE,FALSE,FALSE,FALSE,FALSE,FALSE,FALSE,FALSE,FALSE,FALSE,FALSE,FALSE,Night,Night,Night,Night
A-2716806,2,16/02/16 6:02,16/02/16 12:02,40.6126,-80.09494,40.61824,-80.09567,0.392,At PA-910/Exit 73 - Accident.,,I-79 N,R,Wexford,Allegheny,PA,15090,US,US/Eastern,KBTP,16/02/16 5:55,32,,93,29.61,7,Calm,,0.15,Clear,FALSE,FALSE,FALSE,FALSE,FALSE,FALSE,FALSE,FALSE,FALSE,FALSE,FALSE,FALSE,FALSE,Night,Night,Night,Day
A-2716807,3,16/02/16 6:09,16/02/16 12:09,40.11184,-83.00883,40.11218,-83.02084,0.635,At US-23/Exit 23 - Accident.,,Outerbelt W,R,Columbus,Franklin,OH,43235,US,US/Eastern,KOSU,16/02/16 5:53,33.1,26.1,96,29.71,5,NNW,8.1,0,Overcast,FALSE,FALSE,FALSE,FALSE,FALSE,FALSE,FALSE,FALSE,FALSE,FALSE,FALSE,FALSE,FALSE,Night,Night,Night,Day
A-2716808,2,16/02/16 6:08,16/02/16 12:08,41.06347,-81.50372,41.06472,-81.50414,0.089,Ramp to Exit 125B - Accident.,591, Lumiere St,L,Akron,Summit,OH,44306,US,US/Eastern,KAKR,16/02/16 5:54,33.1,26.1,92,29.68,1,NNW,8.1,0.02,Light Snow,FALSE,FALSE,FALSE,FALSE,FALSE,FALSE,FALSE,FALSE,FALSE,FALSE,FALSE,FALSE,FALSE,Night,Night,Night,Day
A-2716809,2,16/02/16 7:40,16/02/16 13:40,39.972931,-85.965783,39.972875,-85.965902,0.007,At IN-37/Exit 5 - Accident.,,I-69 S,R,Fishers,Hamilton,IN,46038,US,US/Eastern,KMQJ,16/02/16 7:34,30.2,22.6,86,29.79,5,West,8.1,,Overcast,FALSE,FALSE,FALSE,FALSE,FALSE,FALSE,FALSE,FALSE,FALSE,FALSE,FALSE,FALSE,FALSE,Day,Day,Day,Day
A-2716810,2,16/02/16 8:12,16/02/16 14:12,39.95459,-83.04255,39.97368,-83.0835,2.538,Between US-40/Broad St/Exit 97 and Hague Ave/Exit 95 - Accident.,,I-70 W,R,Columbus,Franklin,OH,43222,US,US/Eastern,KTZR,16/02/16 7:47,32,24.2,100,29.73,2.5,NW,9.2,,Overcast,FALSE,FALSE,FALSE,FALSE,FALSE,FALSE,FALSE,FALSE,FALSE,FALSE,FALSE,FALSE,FALSE,Day,Day,Day,Day
A-2716811,3,16/02/16 8:11,16/02/16 14:11,40.11184,-83.00883,40.11218,-83.02084,0.635,At US-23/Exit 23 - Accident.,,Outerbelt W,R,Columbus,Franklin,OH,43235,US,US/Eastern,KOSU,16/02/16 7:53,32,24.2,96,29.75,3,NW,9.2,,Overcast,FALSE,FALSE,FALSE,FALSE,FALSE,FALSE,FALSE,FALSE,FALSE,FALSE,FALSE,FALSE,FALSE,Day,Day,Day,Day
A-2716812,2,16/02/16 8:17,16/02/16 14:17,39.97241,-82.84695,40.00631,-82.87275,2.711,Between OH-16/Broad St/Exit 39 and OH-317/Hamilton Rd/Exit 37 - Accident.,,Outerbelt N,R,Columbus,Franklin,OH,43213,US,US/Eastern,KCMH,16/02/16 7:51,32,24.8,88,29.75,5,NNW,8.1,,Overcast,FALSE,FALSE,FALSE,FALSE,FALSE,FALSE,FALSE,FALSE,FALSE,FALSE,FALSE,FALSE,FALSE,Day,Day,Day,Day
A-2716813,2,16/02/16 8:23,16/02/16 14:23,39.9912,-85.9188,39.99008,-85.92858,0.523,At IN-238/Exit 10 - Accident.,,Olio Rd,R,Noblesville,Hamilton,IN,46060,US,US/Eastern,KTYQ,16/02/16 8:15,28.4,21.2,92,29.8,4,West,6.9,,Overcast,FALSE,FALSE,FALSE,FALSE,FALSE,FALSE,FALSE,FALSE,FALSE,FALSE,FALSE,FALSE,FALSE,Day,Day,Day,Day
A-2716814,2,16/02/16 8:59,16/02/16 14:59,41.34965,-81.51146,41.31438,-81.51325,2.439,Between I-480/Cuyahoga-Summit Co Line and OH-82/Exit 19 - Accident.,,I-271 S,R,Macedonia,Summit,OH,44056,US,US/Eastern,KPOV,16/02/16 11:28,,,,29.7,,North,,,,FALSE,FALSE,FALSE,FALSE,FALSE,FALSE,FALSE,FALSE,FALSE,FALSE,FALSE,FALSE,FALSE,Day,Day,Day,Day
A-2716815,4,16/02/16 8:59,16/02/16 14:59,41.11987,-80.69004,41.12401,-80.677376,0.719,Closed at I-680 - Road closed due to accident.,,OH-711 S,R,Youngstown,Mahoning,OH,44509,US,US/Eastern,KYNG,16/02/16 8:51,30,21.7,92,29.68,0.8,NNW,9.2,,Light Freezing Drizzle,FALSE,FALSE,FALSE,FALSE,FALSE,FALSE,FALSE,FALSE,FALSE,FALSE,FALSE,FALSE,FALSE,Day,Day,Day,Day
A-2716816,4,16/02/16 8:59,16/02/16 14:59,41.11851,-80.69242,41.11928,-80.6912,0.083,Ramp closed to OH-711 Eastbound - Road closed due to accident.,1530, Salt Springs Rd,L,Youngstown,Mahoning,OH,44509-1642,US,US/Eastern,KYNG,16/02/16 8:51,30,21.7,92,29.68,0.8,NNW,9.2,,Light Freezing Drizzle,FALSE,FALSE,FALSE,FALSE,FALSE,FALSE,FALSE,FALSE,FALSE,FALSE,FALSE,FALSE,FALSE,Day,Day,Day,Day
A-2716817,2,16/02/16 8:59,16/02/16 14:59,40.05642,-83.03097,40.05456,-83.03166,0.134,At Henderson Rd - Accident.,,Olentangy Fwy S,R,Columbus,Franklin,OH,43214,US,US/Eastern,KOSU,16/02/16 8:53,32,26.4,96,29.78,2.5,NW,5.8,,Overcast,FALSE,FALSE,FALSE,FALSE,FALSE,FALSE,FALSE,FALSE,FALSE,FALSE,FALSE,FALSE,FALSE,Day,Day,Day,Day
A-2716818,4,16/02/16 8:59,16/02/16 14:59,41.123412,-80.682026,41.11882,-80.69266,0.638,Closed at I-680 - Road closed due to accident.,,OH-711 S,R,Youngstown,Mahoning,OH,44510,US,US/Eastern,KYNG,16/02/16 8:51,30,21.7,92,29.68,0.8,NNW,9.2,,Light Freezing Drizzle,FALSE,FALSE,FALSE,FALSE,FALSE,FALSE,FALSE,FALSE,FALSE,FALSE,FALSE,FALSE,FALSE,Day,Day,Day,Day
A-2716819,2,16/02/16 9:01,16/02/16 15:01,38.117487,-85.760397,38.11748,-85.760353,0.002,At KY-1020/National TNPk/Exit 8 - Accident.,,KY-841 E,R,Fairdale,Jefferson,KY,40118,US,US/Eastern,KSDF,16/02/16 8:56,34,29.8,92,29.86,0.5,SSW,4.6,,Overcast,FALSE,FALSE,FALSE,FALSE,FALSE,FALSE,FALSE,FALSE,FALSE,FALSE,FALSE,FALSE,FALSE,Day,Day,Day,Day
A-2716820,2,16/02/16 9:13,16/02/16 15:13,41.44134,-81.65055,41.42336,-81.64497,1.275,Between Grant Ave/Exit 158 and OH-21/Brecksville Rd/Exit 157 - Accident.,,I-77 S,R,Cleveland,Cuyahoga,OH,44105,US,US/Eastern,KBKL,16/02/16 9:10,32,24.2,96,29.73,1,NNW,9.2,0,Light Snow,FALSE,FALSE,FALSE,FALSE,FALSE,FALSE,FALSE,FALSE,FALSE,FALSE,FALSE,FALSE,FALSE,Day,Day,Day,Day
A-2716821,2,16/02/16 9:18,16/02/16 15:18,38.61531,-80.76034,38.61838,-80.75247,0.475,At US-19/Exit 57 - Accident.,,I-79 N,R,Sutton,Braxton,WV,26601,US,US/Eastern,K48I,16/02/16 9:00,33,27,96,28.37,0.75,WSW,7,0.01,Light Snow,FALSE,FALSE,FALSE,FALSE,FALSE,FALSE,FALSE,FALSE,FALSE,FALSE,FALSE,FALSE,FALSE,Day,Day,Day,Day
A-2716822,4,16/02/16 9:32,16/02/16 15:32,41.124052,-80.677589,41.11882,-80.69266,0.864,Closed between US-42 and I-680 - Road closed due to accident.,,OH-711 S,R,Youngstown,Mahoning,OH,44510,US,US/Eastern,KYNG,16/02/16 9:21,30,21.7,92,29.65,1.5,NNW,9.2,,Light Snow,FALSE,FALSE,FALSE,FALSE,FALSE,FALSE,FALSE,FALSE,FALSE,FALSE,FALSE,FALSE,FALSE,Day,Day,Day,Day
A-2716823,2,16/02/16 9:41,16/02/16 15:41,39.95085,-82.94428,39.94916,-82.94373,0.12,At Alum Creek Dr/Exit 103 - Accident.,,I-70 E,R,Columbus,Franklin,OH,43205,US,US/Eastern,KCMH,16/02/16 9:49,32,26.4,87,29.77,5,NW,5.8,,Overcast,FALSE,FALSE,FALSE,FALSE,FALSE,FALSE,FALSE,FALSE,FALSE,FALSE,FALSE,FALSE,FALSE,Day,Day,Day,Day
A-2716824,2,16/02/16 9:54,16/02/16 15:54,41.06257,-81.52228,41.06268,-81.51988,0.125,At Wolf Ledges/Exit 22 - Accident.,,I-77 N,R,Akron,Summit,OH,44311,US,US/Eastern,KAKR,16/02/16 9:54,34,28.8,89,29.72,1.2,NNW,5.8,0,Light Snow,FALSE,FALSE,FALSE,FALSE,FALSE,FALSE,FALSE,FALSE,FALSE,FALSE,FALSE,FALSE,FALSE,Day,Day,Day,Day
A-2716825,2,16/02/16 9:58,16/02/16 15:58,40.11212,-83.03906,40.1119,-83.01663,1.185,Between OH-315/Olentangy Riv Rd/Exit 22 and US-23/Exit 23 - Accident.,,Outerbelt E,R,Columbus,Franklin,OH,43235,US,US/Eastern,KOSU,16/02/16 10:00,33.1,24.9,92,29.77,2.5,WNW,10.4,,Overcast,FALSE,FALSE,FALSE,FALSE,FALSE,FALSE,FALSE,FALSE,FALSE,FALSE,FALSE,FALSE,FALSE,Day,Day,Day,Day
A-2716826,2,16/02/16 10:05,16/02/16 16:05,39.887033,-83.043909,39.875819,-83.051608,0.876,At Stringtown Rd/Exit 100 - Accident.,,I-71 S,R,Grove City,Franklin,OH,43123,US,US/Eastern,KTZR,16/02/16 10:18,32,25.6,100,29.79,0.8,West,6.9,,Light Snow,FALSE,FALSE,FALSE,FALSE,FALSE,FALSE,FALSE,FALSE,FALSE,FALSE,FALSE,FALSE,FALSE,Day,Day,Day,Day
A-2716827,2,16/02/16 10:12,16/02/16 16:12,40.04916,-83.03336,40.05188,-83.03257,0.193,At OH-315/W Henderson Rd/Jasonway Ave - Accident.,,Olentangy Fwy N,R,Columbus,Franklin,OH,43214,US,US/Eastern,KOSU,16/02/16 10:13,32,24.8,96,29.77,1.8,WNW,8.1,,Overcast,FALSE,FALSE,FALSE,FALSE,FALSE,FALSE,FALSE,FALSE,FALSE,FALSE,FALSE,FALSE,FALSE,Day,Day,Day,Day
A-2716828,2,16/02/16 11:46,16/02/16 17:46,41.12906,-85.1612,41.13,-85.15408,0.376,At US-27/IN-1/IN-3/Lima Rd/Exit 111 - Accident.,,US-24 E,R,Fort Wayne,Allen,IN,46818,US,US/Eastern,KFWA,16/02/16 11:54,28.9,21.9,82,29.86,8,NW,6.9,0,Light Freezing Drizzle,FALSE,FALSE,FALSE,FALSE,FALSE,FALSE,FALSE,FALSE,FALSE,FALSE,FALSE,FALSE,FALSE,Day,Day,Day,Day
A-2716829,2,16/02/16 11:46,16/02/16 17:46,41.17798,-85.10323,41.18004,-85.1033,0.142,At IN-1/Dupont Rd/Exit 116 - Accident.,,I-69 N,R,Fort Wayne,Allen,IN,46825,US,US/Eastern,KGWB,16/02/16 11:55,30.2,26.7,86,29.82,5,West,3.5,,Haze,FALSE,FALSE,FALSE,FALSE,FALSE,FALSE,FALSE,FALSE,FALSE,FALSE,FALSE,FALSE,FALSE,Day,Day,Day,Day
A-2716830,2,16/02/16 12:08,16/02/16 18:08,38.08783,-83.90263,38.12853,-83.74765,8.883,Between US-60/Exit 113 and KY-36/Exit 121 - Accident.,,I-64 E,R,Mount Sterling,Montgomery,KY,40353,US,US/Eastern,KIOB,16/02/16 12:15,33.8,27.7,100,29.85,5,West,6.9,0.03,Overcast,FALSE,FALSE,FALSE,FALSE,FALSE,FALSE,FALSE,FALSE,FALSE,FALSE,FALSE,FALSE,FALSE,Day,Day,Day,Day
A-2716831,2,16/02/16 12:18,16/02/16 18:18,41.63316,-83.54203,41.63548,-83.54284,0.166,At South Ave/Kuhlman Dr/Exit 200 - Accident.,,I-75 N,R,Toledo,Lucas,OH,43609,US,US/Eastern,KTDZ,16/02/16 12:05,30.9,,79,29.81,5,Calm,,,Haze,FALSE,FALSE,FALSE,FALSE,TRUE,FALSE,FALSE,FALSE,FALSE,FALSE,FALSE,FALSE,FALSE,Day,Day,Day,Day
A-2716832,2,16/02/16 12:40,16/02/16 18:40,39.149639,-84.539381,39.15228,-84.5412,0.207,At I-74/US-52/US-27/Exit 4 - Accident.,,I-74 W,R,Cincinnati,Hamilton,OH,45225,US,US/Eastern,KLUK,16/02/16 12:53,36,31.1,73,29.85,10,West,5.8,,Overcast,FALSE,FALSE,FALSE,FALSE,FALSE,FALSE,FALSE,FALSE,FALSE,FALSE,FALSE,FALSE,FALSE,Day,Day,Day,Day
A-2716833,4,16/02/16 13:47,16/02/16 19:47,40.9605,-85.3528,40.96051,-85.34522,0.395,Closed between Gundy Rd and Mayne Rd - Road closed due to accident.,5083, E 900 N,R,Roanoke,Huntington,IN,46783-9701,US,US/Eastern,KFWA,16/02/16 13:54,30,22.4,79,29.84,10,West,8.1,,Overcast,FALSE,FALSE,FALSE,FALSE,FALSE,FALSE,FALSE,FALSE,FALSE,FALSE,FALSE,FALSE,FALSE,Day,Day,Day,Day
A-2716834,4,16/02/16 13:47,16/02/16 19:47,40.96051,-85.34522,40.9605,-85.3528,0.395,Closed between Mayne Rd and Gundy Rd - Road closed due to accident.,5527, E 900 N,R,Roanoke,Huntington,IN,46783-9703,US,US/Eastern,KFWA,16/02/16 13:54,30,22.4,79,29.84,10,West,8.1,,Overcast,FALSE,FALSE,FALSE,FALSE,FALSE,FALSE,FALSE,FALSE,FALSE,FALSE,FALSE,FALSE,FALSE,Day,Day,Day,Day
A-2716835,2,16/02/16 14:36,16/02/16 20:36,41.08204,-80.64847,41.08156,-80.64523,0.172,At South Ave/Exit 7 - Accident.,,I-680 S,R,Youngstown,Mahoning,OH,44507,US,US/Eastern,KYNG,16/02/16 14:51,30.9,22.8,89,29.74,3,NNW,9.2,,Overcast,FALSE,FALSE,FALSE,FALSE,TRUE,FALSE,FALSE,FALSE,FALSE,FALSE,FALSE,FALSE,FALSE,Day,Day,Day,Day
A-2716836,2,16/02/16 14:38,16/02/16 20:38,41.61791,-83.54107,41.6217,-83.54185,0.265,At OH-65/Miami St/Exit 199 - Accident.,,I-75 N,R,Northwood,Wood,OH,43619,US,US/Eastern,KTDZ,16/02/16 14:53,32,24.2,75,29.79,9,WNW,9.2,,Overcast,FALSE,FALSE,FALSE,FALSE,FALSE,FALSE,FALSE,FALSE,FALSE,FALSE,FALSE,FALSE,FALSE,Day,Day,Day,Day
A-2716837,2,16/02/16 15:26,16/02/16 21:26,38.41592,-82.3465,38.411198,-82.349767,0.371,Between US-60/Exit 15 and WV-10/Hal Greer Blvd/Exit 11 - Accident.,,I-64 W,R,Huntington,Cabell,WV,25705,US,US/Eastern,KHTS,16/02/16 15:51,36,32.1,76,29.81,10,NW,4.6,,Overcast,FALSE,FALSE,FALSE,FALSE,TRUE,FALSE,FALSE,FALSE,FALSE,FALSE,FALSE,FALSE,FALSE,Day,Day,Day,Day
A-2716838,2,16/02/16 15:46,16/02/16 21:46,41.67571,-83.69385,41.67571,-83.69385,0,At US-20/OH-120/Central/Exit 13 - Accident.,,I-475 N,R,Toledo,Lucas,OH,43615,US,US/Eastern,KDUH,16/02/16 15:55,30.2,23.4,77,29.79,10,West,6.9,,Overcast,FALSE,FALSE,FALSE,FALSE,FALSE,FALSE,FALSE,FALSE,FALSE,FALSE,FALSE,FALSE,FALSE,Day,Day,Day,Day
A-2716839,2,16/02/16 16:25,16/02/16 22:25,39.08272,-84.52264,39.05753,-84.54183,2.022,Between 12th St/Pike St/Exit 191 and KY-1072/Kyles Ln/Exit 189 - Accident.,,I-75 S,R,Covington,Kenton,KY,41011,US,US/Eastern,KLUK,16/02/16 16:53,37.9,33.5,68,29.84,10,West,5.8,,Scattered Clouds,FALSE,FALSE,FALSE,FALSE,FALSE,FALSE,FALSE,FALSE,FALSE,FALSE,FALSE,FALSE,FALSE,Day,Day,Day,Day
A-2716840,2,16/02/16 16:42,16/02/16 22:42,39.280947,-80.278075,39.280307,-80.280756,0.15,At US-50/Exit 119 - Accident.,,US-50 W,R,Bridgeport,Harrison,WV,26330,US,US/Eastern,KCKB,16/02/16 16:53,34,28.8,96,29.77,4,WSW,5.8,0,Overcast,FALSE,FALSE,FALSE,FALSE,FALSE,FALSE,FALSE,FALSE,FALSE,FALSE,FALSE,TRUE,FALSE,Day,Day,Day,Day
A-2716841,2,16/02/16 16:43,16/02/16 22:43,38.36387,-81.73867,38.36387,-81.73867,0,At WV-25/10th/Roxalana Rd/Exit 53 - Accident.,,I-64 W,R,Dunbar,Kanawha,WV,25064,US,US/Eastern,KCRW,16/02/16 16:54,36,33.3,82,29.83,10,Variable,3.5,,Overcast,FALSE,FALSE,FALSE,FALSE,FALSE,FALSE,FALSE,FALSE,FALSE,FALSE,FALSE,FALSE,FALSE,Day,Day,Day,Day
A-2716842,2,16/02/16 16:47,16/02/16 22:47,40.0187,-82.90466,40.0122,-82.90727,0.47,Ramp to Exit 35A - Accident.,,Outerbelt S,R,Columbus,Franklin,OH,43219,US,US/Eastern,KCMH,16/02/16 16:51,32,24.2,75,29.82,7,WNW,9.2,0,Overcast,FALSE,FALSE,FALSE,FALSE,FALSE,FALSE,FALSE,FALSE,FALSE,FALSE,FALSE,FALSE,FALSE,Day,Day,Day,Day
A-2716843,3,16/02/16 17:45,16/02/16 23:45,41.53757,-81.64083,41.53898,-81.63629,0.254,At 72nd St/Exit 176 - Accident.,,OH-2 E,R,Cleveland,Cuyahoga,OH,44103,US,US/Eastern,KBKL,16/02/16 17:53,30.9,23.5,89,29.82,6,West,8.1,,Overcast,FALSE,FALSE,FALSE,FALSE,FALSE,FALSE,FALSE,FALSE,FALSE,FALSE,FALSE,FALSE,FALSE,Day,Day,Day,Day
A-2716844,3,16/02/16 18:13,17/02/16 0:13,41.16522,-81.47454,41.16093,-81.46962,0.392,At Graham Rd - Accident.,,OH-8 S,R,Stow,Summit,OH,44224,US,US/Eastern,KAKR,16/02/16 17:54,32,24.2,79,29.81,8,WNW,9.2,,Overcast,FALSE,FALSE,FALSE,FALSE,FALSE,FALSE,FALSE,FALSE,FALSE,FALSE,FALSE,FALSE,FALSE,Night,Day,Day,Day
A-2716845,4,16/02/16 18:13,17/02/16 0:13,39.52352,-82.02361,39.517216,-82.025802,0.451,Closed at Amesville - Road closed due to accident.,5809, S State Route 78,L,Glouster,Athens,OH,45732-8905,US,US/Eastern,KUNI,16/02/16 18:10,32.4,,100,29.85,7,Calm,,,Overcast,FALSE,FALSE,FALSE,FALSE,FALSE,FALSE,FALSE,FALSE,FALSE,FALSE,FALSE,FALSE,FALSE,Night,Day,Day,Day
A-2716846,4,16/02/16 18:13,17/02/16 0:13,39.517216,-82.025802,39.52352,-82.02361,0.451,Closed at CR-38/Bishopville Rd - Road closed due to accident.,6102, S State Route 78,R,Glouster,Athens,OH,45732-8905,US,US/Eastern,KUNI,16/02/16 18:10,32.4,,100,29.85,7,Calm,,,Overcast,FALSE,FALSE,FALSE,FALSE,FALSE,FALSE,FALSE,FALSE,FALSE,FALSE,FALSE,FALSE,FALSE,Night,Day,Day,Day
A-2716847,4,17/02/16 0:52,17/02/16 6:52,40.322818,-83.071034,40.325909,-83.071612,0.216,Closed between CR-215/Panhandle Rd and Delaware - Road closed due to accident.,,US Highway 23 N,R,Delaware,Delaware,OH,43015,US,US/Eastern,KDLZ,17/02/16 0:56,28.4,23.3,80,29.94,10,WNW,4.6,,Overcast,FALSE,FALSE,FALSE,FALSE,FALSE,FALSE,FALSE,FALSE,FALSE,FALSE,FALSE,FALSE,FALSE,Night,Night,Night,Night
A-2716848,4,17/02/16 1:46,17/02/16 7:46,41.73565,-84.99082,41.75381,-85.43421,22.892,Closed between I-69/US-27/Exit 144 and IN-9/Exit 121 - Road closed due to accident.,,I-80 W,R,Fremont,Steuben,IN,46737,US,US/Eastern,KANQ,17/02/16 1:55,28.4,23.3,93,29.92,6,West,4.6,,Overcast,FALSE,FALSE,FALSE,FALSE,FALSE,FALSE,FALSE,FALSE,FALSE,FALSE,FALSE,FALSE,FALSE,Night,Night,Night,Night
A-2716849,4,17/02/16 4:16,17/02/16 10:16,39.14648,-84.45455,39.14305,-84.48184,1.481,Closed between Dana Ave/Exit 5 and US-22/OH-3/Montgomery Rd/Exit 5 - Road closed due to accident.,,I-71 S,R,Cincinnati,Hamilton,OH,45212,US,US/Eastern,KLUK,17/02/16 3:53,28,,100,30.06,5,Calm,,,Overcast,FALSE,FALSE,FALSE,FALSE,FALSE,FALSE,FALSE,FALSE,FALSE,FALSE,FALSE,FALSE,FALSE,Night,Night,Night,Night
A-2716850,3,17/02/16 7:17,17/02/16 13:17,39.82122,-85.76482,39.82115,-85.77004,0.277,At IN-9/Exit 104 - Accident.,,I-70 W,R,Greenfield,Hancock,IN,46140,US,US/Eastern,KMQJ,17/02/16 7:14,30.2,21.3,86,30.11,7,North,10.4,,Overcast,FALSE,FALSE,FALSE,FALSE,FALSE,FALSE,FALSE,FALSE,FALSE,FALSE,FALSE,FALSE,FALSE,Night,Day,Day,Day
A-2716851,2,17/02/16 7:22,17/02/16 13:22,41.11889,-81.65407,41.12877,-81.65219,0.69,Ramp to I-77 - Accident.,,OH-21 N,R,Akron,Summit,OH,44321,US,US/Eastern,KAKR,17/02/16 6:54,28,21.7,81,30.03,7,SW,5.8,0,Overcast,FALSE,FALSE,FALSE,FALSE,FALSE,FALSE,FALSE,FALSE,FALSE,FALSE,FALSE,FALSE,FALSE,Day,Day,Day,Day
A-2716852,4,17/02/16 7:57,17/02/16 13:57,40.121557,-83.151457,40.11036,-83.15869,0.863,Closed at Avery Rd - Road closed due to accident.,7579, Muirfield Dr,R,Dublin,Franklin,OH,43017,US,US/Eastern,KOSU,17/02/16 7:53,30,24.1,85,30.11,3,West,5.8,,Overcast,FALSE,FALSE,FALSE,FALSE,FALSE,FALSE,FALSE,FALSE,FALSE,FALSE,FALSE,FALSE,FALSE,Day,Day,Day,Day
A-2716853,4,17/02/16 7:57,17/02/16 13:57,40.11017,-83.15877,40.121827,-83.151367,0.895,Closed between Avery Rd and Cormorant Dr - Road closed due to accident.,,Avery Rd,R,Dublin,Franklin,OH,43017,US,US/Eastern,KOSU,17/02/16 7:53,30,24.1,85,30.11,3,West,5.8,,Overcast,FALSE,FALSE,FALSE,FALSE,FALSE,FALSE,FALSE,FALSE,FALSE,FALSE,FALSE,FALSE,FALSE,Day,Day,Day,Day
A-2716854,2,17/02/16 8:08,17/02/16 14:08,41.57777,-81.54987,41.57615,-81.55346,0.217,At 185th St/Waterloo Rd/Exit 182 - Accident.,,OH-2 W,R,Cleveland,Cuyahoga,OH,44119,US,US/Eastern,KCGF,17/02/16 7:45,28.4,19.7,93,30.03,3,WSW,9.2,,Light Snow,FALSE,FALSE,FALSE,FALSE,FALSE,FALSE,FALSE,FALSE,FALSE,FALSE,FALSE,FALSE,FALSE,Day,Day,Day,Day
A-2716855,3,17/02/16 8:15,17/02/16 14:15,40.121557,-83.151457,40.11036,-83.15869,0.863,At Avery Rd - Accident.,7579, Muirfield Dr,R,Dublin,Franklin,OH,43017,US,US/Eastern,KOSU,17/02/16 7:53,30,24.1,85,30.11,3,West,5.8,,Overcast,FALSE,FALSE,FALSE,FALSE,FALSE,FALSE,FALSE,FALSE,FALSE,FALSE,FALSE,FALSE,FALSE,Day,Day,Day,Day
A-2716856,3,17/02/16 8:15,17/02/16 14:15,40.11017,-83.15877,40.121616,-83.151314,0.884,Between Avery Rd and Dunabbey Loop - Accident.,,Avery Rd,R,Dublin,Franklin,OH,43017,US,US/Eastern,KOSU,17/02/16 7:53,30,24.1,85,30.11,3,West,5.8,,Overcast,FALSE,FALSE,FALSE,FALSE,FALSE,FALSE,FALSE,FALSE,FALSE,FALSE,FALSE,FALSE,FALSE,Day,Day,Day,Day
A-2716857,2,17/02/16 8:13,17/02/16 14:13,41.04592,-81.69463,41.04453,-81.69229,0.155,At OH-261/Exit 11 - Accident.,,US-224 E,R,Wadsworth,Medina,OH,44281,US,US/Eastern,KAKR,17/02/16 7:54,28,22.8,81,30.06,6,WSW,4.6,,Haze,FALSE,FALSE,FALSE,FALSE,TRUE,FALSE,FALSE,FALSE,FALSE,FALSE,FALSE,FALSE,FALSE,Day,Day,Day,Day
A-2716858,2,17/02/16 8:36,17/02/16 14:36,41.42099,-81.69052,41.40753,-81.63808,2.872,Between OH-176/OH-17/Exit 17 and I-77/Exit 20 - Accident.,,I-480 E,R,Cleveland,Cuyahoga,OH,44109,US,US/Eastern,KBKL,17/02/16 8:53,30.9,21.7,82,30.09,4,WSW,11.5,0,Light Snow,FALSE,FALSE,FALSE,FALSE,FALSE,FALSE,FALSE,FALSE,FALSE,FALSE,FALSE,FALSE,FALSE,Day,Day,Day,Day
A-2716859,2,17/02/16 8:57,17/02/16 14:57,39.27486,-84.346,39.26678,-84.35626,0.783,At I-275/Exit 17 - Accident.,,I-71 S,R,Cincinnati,Hamilton,OH,45249,US,US/Eastern,KHAO,17/02/16 8:53,32,28.7,88,30.2,4,West,3.5,,Overcast,FALSE,FALSE,FALSE,FALSE,FALSE,FALSE,FALSE,FALSE,FALSE,FALSE,FALSE,FALSE,FALSE,Day,Day,Day,Day
A-2716860,2,17/02/16 9:27,17/02/16 15:27,39.28266,-84.56742,39.28615,-84.56214,0.371,At US-127/Exit 36 - Accident.,,I-275 E,R,Cincinnati,Hamilton,OH,45231,US,US/Eastern,KHAO,17/02/16 9:29,33.1,28.7,85,30.2,5,West,4.6,,Overcast,FALSE,FALSE,FALSE,FALSE,FALSE,FALSE,FALSE,FALSE,FALSE,FALSE,FALSE,FALSE,FALSE,Day,Day,Day,Day
A-2716861,2,17/02/16 10:27,17/02/16 16:27,39.9467,-82.22232,39.94817,-82.21895,0.205,At Mt Perry Rd/Exit 142 - Accident.,,Mount Perry Rd,R,Heath,Muskingum,OH,43056,US,US/Eastern,KVTA,17/02/16 10:54,32,25.6,82,30.18,4,WNW,6.9,,Haze,FALSE,FALSE,FALSE,FALSE,FALSE,FALSE,FALSE,FALSE,FALSE,FALSE,FALSE,FALSE,FALSE,Day,Day,Day,Day
A-2716862,2,17/02/16 10:45,17/02/16 16:45,39.17397,-84.49031,39.1765,-84.48757,0.228,At OH-562/Exit 7 - Accident.,,I-75 N,R,Cincinnati,Hamilton,OH,45237,US,US/Eastern,KLUK,17/02/16 10:53,34,29.8,79,30.26,9,NW,4.6,,Overcast,FALSE,FALSE,FALSE,FALSE,FALSE,FALSE,FALSE,FALSE,FALSE,FALSE,FALSE,FALSE,FALSE,Day,Day,Day,Day
A-2716863,3,17/02/16 10:54,17/02/16 16:54,39.17736,-84.4873,39.1737,-84.49092,0.319,At OH-562/Exit 7 - Accident.,,I-75 S,R,Cincinnati,Hamilton,OH,45237,US,US/Eastern,KLUK,17/02/16 10:53,34,29.8,79,30.26,9,NW,4.6,,Overcast,FALSE,FALSE,FALSE,FALSE,FALSE,FALSE,FALSE,FALSE,FALSE,FALSE,FALSE,FALSE,FALSE,Day,Day,Day,Day
A-2716864,2,17/02/16 11:51,17/02/16 17:51,39.9467,-82.22232,39.94817,-82.21895,0.205,At Mt Perry Rd/Exit 142 - Accident.,,Mount Perry Rd,R,Heath,Muskingum,OH,43056,US,US/Eastern,KVTA,17/02/16 11:54,34,28,75,30.19,5,WNW,6.9,,Haze,FALSE,FALSE,FALSE,FALSE,FALSE,FALSE,FALSE,FALSE,FALSE,FALSE,FALSE,FALSE,FALSE,Day,Day,Day,Day
A-2716865,2,17/02/16 12:47,17/02/16 18:47,39.9467,-82.22232,39.94817,-82.21895,0.205,At Mt Perry Rd/Exit 142 - Accident.,,Mount Perry Rd,R,Heath,Muskingum,OH,43056,US,US/Eastern,KVTA,17/02/16 12:54,36,30.3,62,30.19,10,Variable,6.9,,Mostly Cloudy,FALSE,FALSE,FALSE,FALSE,FALSE,FALSE,FALSE,FALSE,FALSE,FALSE,FALSE,FALSE,FALSE,Day,Day,Day,Day
A-2716866,2,17/02/16 13:21,17/02/16 19:21,41.68518,-83.5678,41.68548,-83.5675,0.026,At Berdan Ave/Exit 205 - Accident.,,I-75 N,R,Toledo,Lucas,OH,43610,US,US/Eastern,KDUH,17/02/16 13:14,32.4,24,63,30.18,10,NNW,10.4,,Mostly Cloudy,FALSE,FALSE,FALSE,FALSE,FALSE,FALSE,FALSE,FALSE,FALSE,FALSE,FALSE,FALSE,FALSE,Day,Day,Day,Day
A-2716867,2,17/02/16 16:20,17/02/16 22:20,41.66572,-83.5652,41.66683,-83.56736,0.135,At US-24/Detroit Ave/Exit 203 - Accident. in the left lane.,,I-75 N,R,Toledo,Lucas,OH,43620,US,US/Eastern,KDUH,17/02/16 16:15,32.7,25.7,54,30.23,10,NNW,8.1,,Mostly Cloudy,FALSE,FALSE,FALSE,FALSE,FALSE,FALSE,FALSE,FALSE,FALSE,FALSE,FALSE,FALSE,FALSE,Day,Day,Day,Day
A-2716868,2,17/02/16 16:56,17/02/16 22:56,39.27125,-84.35176,39.26717,-84.34628,0.407,At I-71/Exit 49 - Accident. in the right lane.,,I-275 E,R,Cincinnati,Hamilton,OH,45242,US,US/Eastern,KLUK,17/02/16 16:53,36,32.1,67,30.32,10,SW,4.6,,Overcast,FALSE,FALSE,FALSE,FALSE,FALSE,FALSE,FALSE,FALSE,FALSE,FALSE,FALSE,FALSE,FALSE,Day,Day,Day,Day
A-2716869,2,17/02/16 17:04,17/02/16 23:04,41.47395,-81.69931,41.47865,-81.6931,0.457,At I-71/I-90/OH-176/Exit 170 - Accident. in the right lane.,2801, W 25th St,L,Cleveland,Cuyahoga,OH,44113-5133,US,US/Eastern,KBKL,17/02/16 16:53,28.9,21.9,69,30.26,9,North,6.9,0,Light Snow,FALSE,FALSE,FALSE,FALSE,FALSE,FALSE,FALSE,FALSE,FALSE,FALSE,FALSE,FALSE,FALSE,Day,Day,Day,Day
A-2716870,4,18/02/16 4:10,18/02/16 10:10,39.98505,-80.74006,39.95816,-80.76231,2.2,Closed between Central Ave and OH-7-scenic - Road closed due to accident.,3357, Central Ave,R,Shadyside,Belmont,OH,43947-2312,US,US/Eastern,KHLG,18/02/16 3:53,24.1,17,65,30.43,10,NNE,5.8,,Overcast,FALSE,FALSE,FALSE,FALSE,FALSE,FALSE,FALSE,FALSE,FALSE,FALSE,FALSE,FALSE,FALSE,Night,Night,Night,Night
A-2716871,4,18/02/16 4:10,18/02/16 10:10,39.95813,-80.76219,39.98564,-80.73999,2.235,Closed between OH-7-scenic and Central Ave - Road closed due to accident.,,State Route 7,R,Shadyside,Belmont,OH,43947,US,US/Eastern,KHLG,18/02/16 3:53,24.1,17,65,30.43,10,NNE,5.8,,Overcast,FALSE,FALSE,FALSE,FALSE,FALSE,FALSE,FALSE,FALSE,FALSE,FALSE,FALSE,FALSE,FALSE,Night,Night,Night,Night
A-2716872,2,18/02/16 4:59,18/02/16 10:59,41.56544,-81.5835,41.57785,-81.54899,1.979,Between 140th St/152nd St/Exit 180 and 185th St/Waterloo Rd/Exit 182 - Accident.,,OH-2 E,R,Cleveland,Cuyahoga,OH,44110,US,US/Eastern,KCGF,18/02/16 6:45,12.2,2.9,85,30.48,10,SE,5.8,,Clear,FALSE,FALSE,FALSE,FALSE,FALSE,FALSE,FALSE,FALSE,FALSE,FALSE,FALSE,FALSE,FALSE,Night,Night,Night,Night
A-2716873,2,18/02/16 5:02,18/02/16 11:02,38.32587,-83.11389,38.32603,-83.12193,0.436,At US-60/Exit 161 - Accident.,,I-64 W,R,Olive Hill,Carter,KY,41164,US,US/Eastern,KHTS,18/02/16 4:51,32,,85,30.43,7,Calm,,,Overcast,FALSE,FALSE,FALSE,FALSE,TRUE,FALSE,FALSE,FALSE,FALSE,FALSE,FALSE,FALSE,FALSE,Night,Night,Night,Night
A-2716874,2,18/02/16 6:58,18/02/16 12:58,38.25869,-85.7622,38.25962,-85.76688,0.262,At 9th St/Roy Wilkins Ave/Exit 4 - Accident.,,I-64 W,R,Louisville,Jefferson,KY,40202,US,US/Eastern,KLOU,18/02/16 6:53,25,,88,30.47,5,Calm,,,Clear,FALSE,FALSE,FALSE,FALSE,FALSE,FALSE,FALSE,FALSE,FALSE,FALSE,FALSE,FALSE,FALSE,Night,Night,Day,Day
A-2716875,2,18/02/16 6:58,18/02/16 12:58,38.29322,-85.654625,38.293235,-85.654685,0.003,At Zorn Ave/Exit 2 - Accident.,,I-71 S,R,Louisville,Jefferson,KY,40222,US,US/Eastern,KLOU,18/02/16 6:53,25,,88,30.47,5,Calm,,,Clear,FALSE,FALSE,FALSE,FALSE,FALSE,FALSE,FALSE,FALSE,FALSE,FALSE,FALSE,FALSE,FALSE,Night,Night,Day,Day
A-2716876,2,18/02/16 7:05,18/02/16 13:05,39.78609,-83.24607,39.75639,-83.30702,3.832,Between Madison/Pickaway County Line and OH-56/Exit 84 - Accident.,,I-71 S,R,Orient,Madison,OH,43146,US,US/Eastern,KTZR,18/02/16 7:18,24.8,,80,30.46,7,Calm,,,Overcast,FALSE,FALSE,FALSE,FALSE,FALSE,FALSE,FALSE,FALSE,FALSE,FALSE,FALSE,FALSE,FALSE,Night,Day,Day,Day
A-2716877,2,18/02/16 7:05,18/02/16 13:05,41.53968,-81.62795,41.53926,-81.63026,0.123,At ML King Jr Dr/Exit 177 - Accident.,,OH-283 W,R,Cleveland,Cuyahoga,OH,44103,US,US/Eastern,KBKL,18/02/16 6:53,19,11.1,71,30.52,10,SE,5.8,,Clear,FALSE,FALSE,FALSE,FALSE,FALSE,FALSE,FALSE,FALSE,FALSE,FALSE,FALSE,FALSE,FALSE,Night,Day,Day,Day
A-2716878,2,18/02/16 7:16,18/02/16 13:16,39.08927,-84.5227,39.08809,-84.52274,0.082,At Spence Bridge - Accident.,,I-75 S,R,Covington,Kenton,KY,41011,US,US/Eastern,KLUK,18/02/16 6:53,28,,92,30.49,10,Calm,,,Overcast,FALSE,FALSE,FALSE,FALSE,FALSE,FALSE,FALSE,FALSE,FALSE,FALSE,FALSE,FALSE,FALSE,Night,Day,Day,Day
A-2716879,3,18/02/16 7:18,18/02/16 13:18,38.25922,-85.76632,38.25846,-85.7632,0.177,At 9th St/Roy Wilkins Ave/Exit 4 - Accident.,,I-64 E,R,Louisville,Jefferson,KY,40203,US,US/Eastern,KSDF,18/02/16 7:29,27,,89,30.46,2.5,Calm,,,Partly Cloudy,FALSE,FALSE,FALSE,FALSE,FALSE,FALSE,FALSE,FALSE,FALSE,FALSE,FALSE,FALSE,FALSE,Night,Day,Day,Day
A-2716880,3,18/02/16 7:24,18/02/16 13:24,41.55264,-81.60032,41.55022,-81.60536,0.31,At Eddy Rd/Exit 178 - Accident.,,OH-283 W,R,Cleveland,Cuyahoga,OH,44108,US,US/Eastern,KBKL,18/02/16 7:53,18,8.7,74,30.55,10,SE,6.9,,Clear,FALSE,FALSE,FALSE,FALSE,FALSE,FALSE,FALSE,FALSE,FALSE,FALSE,FALSE,FALSE,FALSE,Day,Day,Day,Day
A-2716881,2,18/02/16 8:02,18/02/16 14:02,39.02187,-84.50492,39.02297,-84.51624,0.612,At KY-16/Taylor Mill Rd/Exit 79 - Accident.,,I-275 W,R,Latonia,Kenton,KY,41015,US,US/Eastern,KLUK,18/02/16 7:53,28,,92,30.51,5,Calm,,,Overcast,FALSE,FALSE,FALSE,FALSE,FALSE,FALSE,FALSE,FALSE,FALSE,FALSE,FALSE,FALSE,FALSE,Day,Day,Day,Day
A-2716882,2,18/02/16 8:13,18/02/16 14:13,41.06755,-81.57421,41.06477,-81.57343,0.196,At OH-261/Wooster Ave/Exit 130 - Accident.,,I-77 N,R,Akron,Summit,OH,44320,US,US/Eastern,KAKR,18/02/16 8:13,8.1,,92,30.51,3,Calm,,,Clear,FALSE,FALSE,FALSE,FALSE,TRUE,FALSE,FALSE,FALSE,FALSE,FALSE,FALSE,FALSE,FALSE,Day,Day,Day,Day
A-2716883,2,18/02/16 8:10,18/02/16 14:10,40.49223,-80.01029,40.49463,-80.01246,0.201,At US-19-TRUCK/Evergreen Rd/Exit 11 - Accident.,,I-279 N,R,Pittsburgh,Allegheny,PA,15214,US,US/Eastern,KAGC,18/02/16 7:53,18,11.1,81,30.53,10,North,4.6,,Clear,FALSE,FALSE,FALSE,FALSE,FALSE,FALSE,FALSE,FALSE,FALSE,FALSE,FALSE,FALSE,FALSE,Day,Day,Day,Day
A-2716884,3,18/02/16 8:32,18/02/16 14:32,41.48836,-81.66471,41.49153,-81.67114,0.398,At Woodland Ave/Exit 162 - Accident.,,I-77 N,R,Cleveland,Cuyahoga,OH,44115,US,US/Eastern,KBKL,18/02/16 8:53,19.9,11.1,71,30.59,10,SSE,6.9,,Clear,FALSE,FALSE,FALSE,FALSE,FALSE,FALSE,FALSE,FALSE,FALSE,FALSE,FALSE,FALSE,FALSE,Day,Day,Day,Day
A-2716885,4,18/02/16 8:32,18/02/16 14:32,39.95085,-82.94428,39.93172,-82.92729,1.599,Closed between Alum Creek Dr/Exit 103 and US-33/Exit 105 - Road closed due to accident.,,I-70 E,R,Columbus,Franklin,OH,43205,US,US/Eastern,KCMH,18/02/16 8:51,28,21.7,72,30.53,7,East,5.8,,Scattered Clouds,FALSE,FALSE,FALSE,FALSE,FALSE,FALSE,FALSE,FALSE,FALSE,FALSE,FALSE,FALSE,FALSE,Day,Day,Day,Day
